[{"code_commune_insee": "75111", "nom_commune": "PARIS 11", "code_postal": "75011", "ligne_5": null, "libelle_d_acheminement": "PARIS", "coordonnees_geographiques": {"lon": 2.380025153, "lat": 48.859054908}, "dep": "75"},{"code_commune_insee": "77019", "nom_commune": "BALLOY", "code_postal": "77118", "ligne_5": null, "libelle_d_acheminement": "BALLOY", "coordonnees_geographiques": {"lon": 3.151318742, "lat": 48.397093788}, "dep": "77"},{"code_commune_insee": "77022", "nom_commune": "BARBIZON", "code_postal": "77630", "ligne_5": null, "libelle_d_acheminement": "BARBIZON", "coordonnees_geographiques": {"lon": 2.600809608, "lat": 48.448347603}, "dep": "77"},{"code_commune_insee": "77059", "nom_commune": "BUSSY ST MARTIN", "code_postal": "77600", "ligne_5": null, "libelle_d_acheminement": "BUSSY ST MARTIN", "coordonnees_geographiques": {"lon": 2.679076637, "lat": 48.846084524}, "dep": "77"},{"code_commune_insee": "77112", "nom_commune": "CHEVRAINVILLIERS", "code_postal": "77760", "ligne_5": null, "libelle_d_acheminement": "CHEVRAINVILLIERS", "coordonnees_geographiques": {"lon": 2.602208261, "lat": 48.245970358}, "dep": "77"},{"code_commune_insee": "77183", "nom_commune": "LA FERTE SOUS JOUARRE", "code_postal": "77260", "ligne_5": null, "libelle_d_acheminement": "LA FERTE SOUS JOUARRE", "coordonnees_geographiques": {"lon": 3.128431941, "lat": 48.953965948}, "dep": "77"},{"code_commune_insee": "77186", "nom_commune": "FONTAINEBLEAU", "code_postal": "77300", "ligne_5": null, "libelle_d_acheminement": "FONTAINEBLEAU", "coordonnees_geographiques": {"lon": 2.680925371, "lat": 48.406515646}, "dep": "77"},{"code_commune_insee": "77197", "nom_commune": "FRETOY", "code_postal": "77320", "ligne_5": null, "libelle_d_acheminement": "FRETOY", "coordonnees_geographiques": {"lon": 3.202290315, "lat": 48.706271271}, "dep": "77"},{"code_commune_insee": "77208", "nom_commune": "GOUAIX", "code_postal": "77114", "ligne_5": null, "libelle_d_acheminement": "GOUAIX", "coordonnees_geographiques": {"lon": 3.296410573, "lat": 48.476200115}, "dep": "77"},{"code_commune_insee": "77224", "nom_commune": "HAUTEFEUILLE", "code_postal": "77515", "ligne_5": null, "libelle_d_acheminement": "HAUTEFEUILLE", "coordonnees_geographiques": {"lon": 2.963093633, "lat": 48.766650145}, "dep": "77"},{"code_commune_insee": "77230", "nom_commune": "ICHY", "code_postal": "77890", "ligne_5": null, "libelle_d_acheminement": "ICHY", "coordonnees_geographiques": {"lon": 2.541348077, "lat": 48.206654178}, "dep": "77"},{"code_commune_insee": "77234", "nom_commune": "JABLINES", "code_postal": "77450", "ligne_5": null, "libelle_d_acheminement": "JABLINES", "coordonnees_geographiques": {"lon": 2.756994851, "lat": 48.914491697}, "dep": "77"},{"code_commune_insee": "77284", "nom_commune": "MEAUX", "code_postal": "77100", "ligne_5": null, "libelle_d_acheminement": "MEAUX", "coordonnees_geographiques": {"lon": 2.90006062, "lat": 48.956861307}, "dep": "77"},{"code_commune_insee": "77289", "nom_commune": "MELZ SUR SEINE", "code_postal": "77171", "ligne_5": null, "libelle_d_acheminement": "MELZ SUR SEINE", "coordonnees_geographiques": {"lon": 3.397091313, "lat": 48.504194211}, "dep": "77"},{"code_commune_insee": "77372", "nom_commune": "POMPONNE", "code_postal": "77400", "ligne_5": "LA POMPONNETTE", "libelle_d_acheminement": "POMPONNE", "coordonnees_geographiques": {"lon": 2.674750482, "lat": 48.886880992}, "dep": "77"},{"code_commune_insee": "77389", "nom_commune": "LA ROCHETTE", "code_postal": "77000", "ligne_5": null, "libelle_d_acheminement": "LA ROCHETTE", "coordonnees_geographiques": {"lon": 2.659248553, "lat": 48.506431874}, "dep": "77"},{"code_commune_insee": "77413", "nom_commune": "ST GERMAIN SUR MORIN", "code_postal": "77860", "ligne_5": null, "libelle_d_acheminement": "ST GERMAIN SUR MORIN", "coordonnees_geographiques": {"lon": 2.841219853, "lat": 48.875161835}, "dep": "77"},{"code_commune_insee": "77504", "nom_commune": "VILLEMARECHAL", "code_postal": "77710", "ligne_5": null, "libelle_d_acheminement": "VILLEMARECHAL", "coordonnees_geographiques": {"lon": 2.875857943, "lat": 48.272016653}, "dep": "77"},{"code_commune_insee": "77517", "nom_commune": "VILLEVAUDE", "code_postal": "77410", "ligne_5": "BORDEAUX", "libelle_d_acheminement": "VILLEVAUDE", "coordonnees_geographiques": {"lon": 2.661890564, "lat": 48.911990502}, "dep": "77"},{"code_commune_insee": "77525", "nom_commune": "VINANTES", "code_postal": "77230", "ligne_5": null, "libelle_d_acheminement": "VINANTES", "coordonnees_geographiques": {"lon": 2.739419053, "lat": 49.003563215}, "dep": "77"},{"code_commune_insee": "78227", "nom_commune": "EVECQUEMONT", "code_postal": "78740", "ligne_5": null, "libelle_d_acheminement": "EVECQUEMONT", "coordonnees_geographiques": {"lon": 1.94261171, "lat": 49.01719632}, "dep": "78"},{"code_commune_insee": "78314", "nom_commune": "ISSOU", "code_postal": "78440", "ligne_5": null, "libelle_d_acheminement": "ISSOU", "coordonnees_geographiques": {"lon": 1.789073513, "lat": 48.986824407}, "dep": "78"},{"code_commune_insee": "78474", "nom_commune": "ORVILLIERS", "code_postal": "78910", "ligne_5": null, "libelle_d_acheminement": "ORVILLIERS", "coordonnees_geographiques": {"lon": 1.642493279, "lat": 48.854655854}, "dep": "78"},{"code_commune_insee": "78536", "nom_commune": "SAILLY", "code_postal": "78440", "ligne_5": null, "libelle_d_acheminement": "SAILLY", "coordonnees_geographiques": {"lon": 1.793560905, "lat": 49.042953885}, "dep": "78"},{"code_commune_insee": "92035", "nom_commune": "LA GARENNE COLOMBES", "code_postal": "92250", "ligne_5": null, "libelle_d_acheminement": "LA GARENNE COLOMBES", "coordonnees_geographiques": {"lon": 2.245228942, "lat": 48.906873428}, "dep": "92"},{"code_commune_insee": "92064", "nom_commune": "ST CLOUD", "code_postal": "92210", "ligne_5": null, "libelle_d_acheminement": "ST CLOUD", "coordonnees_geographiques": {"lon": 2.208695657, "lat": 48.842563081}, "dep": "92"},{"code_commune_insee": "94033", "nom_commune": "FONTENAY SOUS BOIS", "code_postal": "94120", "ligne_5": null, "libelle_d_acheminement": "FONTENAY SOUS BOIS", "coordonnees_geographiques": {"lon": 2.474030123, "lat": 48.851226859}, "dep": "94"},{"code_commune_insee": "95199", "nom_commune": "DOMONT", "code_postal": "95330", "ligne_5": null, "libelle_d_acheminement": "DOMONT", "coordonnees_geographiques": {"lon": 2.323249469, "lat": 49.030025383}, "dep": "95"},{"code_commune_insee": "95309", "nom_commune": "HODENT", "code_postal": "95420", "ligne_5": null, "libelle_d_acheminement": "HODENT", "coordonnees_geographiques": {"lon": 1.762560638, "lat": 49.142472662}, "dep": "95"},{"code_commune_insee": "95392", "nom_commune": "MERIEL", "code_postal": "95630", "ligne_5": null, "libelle_d_acheminement": "MERIEL", "coordonnees_geographiques": {"lon": 2.213411713, "lat": 49.077094583}, "dep": "95"},{"code_commune_insee": "95651", "nom_commune": "VETHEUIL", "code_postal": "95510", "ligne_5": null, "libelle_d_acheminement": "VETHEUIL", "coordonnees_geographiques": {"lon": 1.707122338, "lat": 49.06207605}, "dep": "95"},{"code_commune_insee": "77040", "nom_commune": "BOISSISE LE ROI", "code_postal": "77310", "ligne_5": null, "libelle_d_acheminement": "BOISSISE LE ROI", "coordonnees_geographiques": {"lon": 2.569550754, "lat": 48.512849872}, "dep": "77"},{"code_commune_insee": "77124", "nom_commune": "CONCHES SUR GONDOIRE", "code_postal": "77600", "ligne_5": null, "libelle_d_acheminement": "CONCHES SUR GONDOIRE", "coordonnees_geographiques": {"lon": 2.718794405, "lat": 48.858405555}, "dep": "77"},{"code_commune_insee": "77176", "nom_commune": "FAREMOUTIERS", "code_postal": "77515", "ligne_5": null, "libelle_d_acheminement": "FAREMOUTIERS", "coordonnees_geographiques": {"lon": 2.999862647, "lat": 48.77920222}, "dep": "77"},{"code_commune_insee": "77191", "nom_commune": "FONTENAILLES", "code_postal": "77370", "ligne_5": null, "libelle_d_acheminement": "FONTENAILLES", "coordonnees_geographiques": {"lon": 2.926644656, "lat": 48.53244496}, "dep": "77"},{"code_commune_insee": "77203", "nom_commune": "GERMIGNY L EVEQUE", "code_postal": "77910", "ligne_5": null, "libelle_d_acheminement": "GERMIGNY L EVEQUE", "coordonnees_geographiques": {"lon": 2.957514174, "lat": 48.986158763}, "dep": "77"},{"code_commune_insee": "77233", "nom_commune": "IVERNY", "code_postal": "77165", "ligne_5": null, "libelle_d_acheminement": "IVERNY", "coordonnees_geographiques": {"lon": 2.790687296, "lat": 48.996680686}, "dep": "77"},{"code_commune_insee": "77238", "nom_commune": "JOUARRE", "code_postal": "77640", "ligne_5": null, "libelle_d_acheminement": "JOUARRE", "coordonnees_geographiques": {"lon": 3.112763253, "lat": 48.902516979}, "dep": "77"},{"code_commune_insee": "77316", "nom_commune": "MORET LOING ET ORVANNE", "code_postal": "77250", "ligne_5": "MONTARLOT", "libelle_d_acheminement": "MORET LOING ET ORVANNE", "coordonnees_geographiques": {"lon": 2.819738834, "lat": 48.354686543}, "dep": "77"},{"code_commune_insee": "77330", "nom_commune": "NANTEUIL LES MEAUX", "code_postal": "77100", "ligne_5": null, "libelle_d_acheminement": "NANTEUIL LES MEAUX", "coordonnees_geographiques": {"lon": 2.898553372, "lat": 48.928110279}, "dep": "77"},{"code_commune_insee": "77367", "nom_commune": "LE PLESSIS PLACY", "code_postal": "77440", "ligne_5": null, "libelle_d_acheminement": "LE PLESSIS PLACY", "coordonnees_geographiques": {"lon": 2.985036336, "lat": 49.053064419}, "dep": "77"},{"code_commune_insee": "77447", "nom_commune": "SEINE PORT", "code_postal": "77240", "ligne_5": null, "libelle_d_acheminement": "SEINE PORT", "coordonnees_geographiques": {"lon": 2.554134136, "lat": 48.551341945}, "dep": "77"},{"code_commune_insee": "77507", "nom_commune": "VILLENAUXE LA PETITE", "code_postal": "77480", "ligne_5": null, "libelle_d_acheminement": "VILLENAUXE LA PETITE", "coordonnees_geographiques": {"lon": 3.313259007, "lat": 48.400465031}, "dep": "77"},{"code_commune_insee": "78062", "nom_commune": "BEYNES", "code_postal": "78650", "ligne_5": "VAL DES QUATRE PIGNONS", "libelle_d_acheminement": "BEYNES", "coordonnees_geographiques": {"lon": 1.869760642, "lat": 48.854527247}, "dep": "78"},{"code_commune_insee": "78165", "nom_commune": "LES CLAYES SOUS BOIS", "code_postal": "78340", "ligne_5": null, "libelle_d_acheminement": "LES CLAYES SOUS BOIS", "coordonnees_geographiques": {"lon": 1.983713233, "lat": 48.818768304}, "dep": "78"},{"code_commune_insee": "78389", "nom_commune": "MERE", "code_postal": "78490", "ligne_5": null, "libelle_d_acheminement": "MERE", "coordonnees_geographiques": {"lon": 1.820602205, "lat": 48.795847516}, "dep": "78"},{"code_commune_insee": "78486", "nom_commune": "LE PERRAY EN YVELINES", "code_postal": "78610", "ligne_5": null, "libelle_d_acheminement": "LE PERRAY EN YVELINES", "coordonnees_geographiques": {"lon": 1.843382727, "lat": 48.696238177}, "dep": "78"},{"code_commune_insee": "78621", "nom_commune": "TRAPPES", "code_postal": "78190", "ligne_5": null, "libelle_d_acheminement": "TRAPPES", "coordonnees_geographiques": {"lon": 1.994019041, "lat": 48.775754847}, "dep": "78"},{"code_commune_insee": "91179", "nom_commune": "LE COUDRAY MONTCEAUX", "code_postal": "91830", "ligne_5": "LE PLESSIS CHENET", "libelle_d_acheminement": "LE COUDRAY MONTCEAUX", "coordonnees_geographiques": {"lon": 2.487529571, "lat": 48.558603857}, "dep": "91"},{"code_commune_insee": "91339", "nom_commune": "LINAS", "code_postal": "91310", "ligne_5": null, "libelle_d_acheminement": "LINAS", "coordonnees_geographiques": {"lon": 2.251820401, "lat": 48.626192771}, "dep": "91"},{"code_commune_insee": "92033", "nom_commune": "GARCHES", "code_postal": "92380", "ligne_5": null, "libelle_d_acheminement": "GARCHES", "coordonnees_geographiques": {"lon": 2.187473342, "lat": 48.84550185}, "dep": "92"},{"code_commune_insee": "93064", "nom_commune": "ROSNY SOUS BOIS", "code_postal": "93110", "ligne_5": null, "libelle_d_acheminement": "ROSNY SOUS BOIS", "coordonnees_geographiques": {"lon": 2.48590027, "lat": 48.87491844}, "dep": "93"},{"code_commune_insee": "94059", "nom_commune": "LE PLESSIS TREVISE", "code_postal": "94420", "ligne_5": null, "libelle_d_acheminement": "LE PLESSIS TREVISE", "coordonnees_geographiques": {"lon": 2.576362894, "lat": 48.805764129}, "dep": "94"},{"code_commune_insee": "95040", "nom_commune": "AVERNES", "code_postal": "95450", "ligne_5": "GADANCOURT", "libelle_d_acheminement": "AVERNES", "coordonnees_geographiques": {"lon": 1.866777119, "lat": 49.091441006}, "dep": "95"},{"code_commune_insee": "95052", "nom_commune": "BEAUMONT SUR OISE", "code_postal": "95260", "ligne_5": null, "libelle_d_acheminement": "BEAUMONT SUR OISE", "coordonnees_geographiques": {"lon": 2.30024802, "lat": 49.140404504}, "dep": "95"},{"code_commune_insee": "95258", "nom_commune": "FROUVILLE", "code_postal": "95690", "ligne_5": null, "libelle_d_acheminement": "FROUVILLE", "coordonnees_geographiques": {"lon": 2.146384873, "lat": 49.157831608}, "dep": "95"},{"code_commune_insee": "95612", "nom_commune": "LE THILLAY", "code_postal": "95500", "ligne_5": null, "libelle_d_acheminement": "LE THILLAY", "coordonnees_geographiques": {"lon": 2.469845422, "lat": 49.004213797}, "dep": "95"},{"code_commune_insee": "75106", "nom_commune": "PARIS 06", "code_postal": "75006", "ligne_5": null, "libelle_d_acheminement": "PARIS", "coordonnees_geographiques": {"lon": 2.332883793, "lat": 48.84912057}, "dep": "75"},{"code_commune_insee": "75114", "nom_commune": "PARIS 14", "code_postal": "75014", "ligne_5": null, "libelle_d_acheminement": "PARIS", "coordonnees_geographiques": {"lon": 2.326537267, "lat": 48.829262233}, "dep": "75"},{"code_commune_insee": "77010", "nom_commune": "AUBEPIERRE OZOUER LE REPOS", "code_postal": "77720", "ligne_5": null, "libelle_d_acheminement": "AUBEPIERRE OZOUER LE REPOS", "coordonnees_geographiques": {"lon": 2.903442764, "lat": 48.619969635}, "dep": "77"},{"code_commune_insee": "77078", "nom_commune": "CHAMIGNY", "code_postal": "77260", "ligne_5": null, "libelle_d_acheminement": "CHAMIGNY", "coordonnees_geographiques": {"lon": 3.141713493, "lat": 48.985194213}, "dep": "77"},{"code_commune_insee": "77198", "nom_commune": "FROMONT", "code_postal": "77760", "ligne_5": null, "libelle_d_acheminement": "FROMONT", "coordonnees_geographiques": {"lon": 2.507679584, "lat": 48.253444259}, "dep": "77"},{"code_commune_insee": "77256", "nom_commune": "LIZINES", "code_postal": "77650", "ligne_5": null, "libelle_d_acheminement": "LIZINES", "coordonnees_geographiques": {"lon": 3.165699106, "lat": 48.528270763}, "dep": "77"},{"code_commune_insee": "77303", "nom_commune": "MONTDAUPHIN", "code_postal": "77320", "ligne_5": null, "libelle_d_acheminement": "MONTDAUPHIN", "coordonnees_geographiques": {"lon": 3.419772785, "lat": 48.852544799}, "dep": "77"},{"code_commune_insee": "77316", "nom_commune": "MORET LOING ET ORVANNE", "code_postal": "77250", "ligne_5": "ECUELLES", "libelle_d_acheminement": "MORET LOING ET ORVANNE", "coordonnees_geographiques": {"lon": 2.819738834, "lat": 48.354686543}, "dep": "77"},{"code_commune_insee": "77374", "nom_commune": "PONTCARRE", "code_postal": "77135", "ligne_5": null, "libelle_d_acheminement": "PONTCARRE", "coordonnees_geographiques": {"lon": 2.708077296, "lat": 48.796140319}, "dep": "77"},{"code_commune_insee": "77379", "nom_commune": "PROVINS", "code_postal": "77160", "ligne_5": null, "libelle_d_acheminement": "PROVINS", "coordonnees_geographiques": {"lon": 3.287698495, "lat": 48.562992152}, "dep": "77"},{"code_commune_insee": "77418", "nom_commune": "ST LOUP DE NAUD", "code_postal": "77650", "ligne_5": null, "libelle_d_acheminement": "ST LOUP DE NAUD", "coordonnees_geographiques": {"lon": 3.218650089, "lat": 48.536668132}, "dep": "77"},{"code_commune_insee": "77428", "nom_commune": "ST OUEN EN BRIE", "code_postal": "77720", "ligne_5": null, "libelle_d_acheminement": "ST OUEN EN BRIE", "coordonnees_geographiques": {"lon": 2.920094677, "lat": 48.565555122}, "dep": "77"},{"code_commune_insee": "77433", "nom_commune": "BEAUTHEIL SAINTS", "code_postal": "77120", "ligne_5": "SAINTS", "libelle_d_acheminement": "BEAUTHEIL SAINTS", "coordonnees_geographiques": {"lon": 3.076987933, "lat": 48.763240732}, "dep": "77"},{"code_commune_insee": "77526", "nom_commune": "VINCY MANOEUVRE", "code_postal": "77139", "ligne_5": null, "libelle_d_acheminement": "VINCY MANOEUVRE", "coordonnees_geographiques": {"lon": 2.958188117, "lat": 49.075564606}, "dep": "77"},{"code_commune_insee": "78010", "nom_commune": "LES ALLUETS LE ROI", "code_postal": "78580", "ligne_5": null, "libelle_d_acheminement": "LES ALLUETS LE ROI", "coordonnees_geographiques": {"lon": 1.915038783, "lat": 48.913985039}, "dep": "78"},{"code_commune_insee": "78034", "nom_commune": "AUTEUIL", "code_postal": "78770", "ligne_5": null, "libelle_d_acheminement": "AUTEUIL", "coordonnees_geographiques": {"lon": 1.819682429, "lat": 48.839591737}, "dep": "78"},{"code_commune_insee": "78048", "nom_commune": "BAZAINVILLE", "code_postal": "78550", "ligne_5": null, "libelle_d_acheminement": "BAZAINVILLE", "coordonnees_geographiques": {"lon": 1.667004597, "lat": 48.806956033}, "dep": "78"},{"code_commune_insee": "78108", "nom_commune": "LES BREVIAIRES", "code_postal": "78610", "ligne_5": null, "libelle_d_acheminement": "LES BREVIAIRES", "coordonnees_geographiques": {"lon": 1.816439397, "lat": 48.721352684}, "dep": "78"},{"code_commune_insee": "78209", "nom_commune": "EMANCE", "code_postal": "78125", "ligne_5": null, "libelle_d_acheminement": "EMANCE", "coordonnees_geographiques": {"lon": 1.733915555, "lat": 48.591015463}, "dep": "78"},{"code_commune_insee": "78245", "nom_commune": "FONTENAY MAUVOISIN", "code_postal": "78200", "ligne_5": null, "libelle_d_acheminement": "FONTENAY MAUVOISIN", "coordonnees_geographiques": {"lon": 1.647482151, "lat": 48.960644071}, "dep": "78"},{"code_commune_insee": "78317", "nom_commune": "JAMBVILLE", "code_postal": "78440", "ligne_5": null, "libelle_d_acheminement": "JAMBVILLE", "coordonnees_geographiques": {"lon": 1.849276682, "lat": 49.048073009}, "dep": "78"},{"code_commune_insee": "78490", "nom_commune": "PLAISIR", "code_postal": "78370", "ligne_5": null, "libelle_d_acheminement": "PLAISIR", "coordonnees_geographiques": {"lon": 1.946829653, "lat": 48.812531997}, "dep": "78"},{"code_commune_insee": "78506", "nom_commune": "PRUNAY EN YVELINES", "code_postal": "78660", "ligne_5": null, "libelle_d_acheminement": "PRUNAY EN YVELINES", "coordonnees_geographiques": {"lon": 1.804987527, "lat": 48.526366733}, "dep": "78"},{"code_commune_insee": "91340", "nom_commune": "LISSES", "code_postal": "91090", "ligne_5": null, "libelle_d_acheminement": "LISSES", "coordonnees_geographiques": {"lon": 2.424587432, "lat": 48.597005764}, "dep": "91"},{"code_commune_insee": "91377", "nom_commune": "MASSY", "code_postal": "91300", "ligne_5": null, "libelle_d_acheminement": "MASSY", "coordonnees_geographiques": {"lon": 2.275240048, "lat": 48.72750723}, "dep": "91"},{"code_commune_insee": "91538", "nom_commune": "ST AUBIN", "code_postal": "91190", "ligne_5": "VILLERAS", "libelle_d_acheminement": "ST AUBIN", "coordonnees_geographiques": {"lon": 2.139502723, "lat": 48.714872473}, "dep": "91"},{"code_commune_insee": "93001", "nom_commune": "AUBERVILLIERS", "code_postal": "93300", "ligne_5": null, "libelle_d_acheminement": "AUBERVILLIERS", "coordonnees_geographiques": {"lon": 2.384529976, "lat": 48.912490578}, "dep": "93"},{"code_commune_insee": "93006", "nom_commune": "BAGNOLET", "code_postal": "93170", "ligne_5": null, "libelle_d_acheminement": "BAGNOLET", "coordonnees_geographiques": {"lon": 2.422697136, "lat": 48.869038019}, "dep": "93"},{"code_commune_insee": "94004", "nom_commune": "BOISSY ST LEGER", "code_postal": "94470", "ligne_5": null, "libelle_d_acheminement": "BOISSY ST LEGER", "coordonnees_geographiques": {"lon": 2.525046124, "lat": 48.747047399}, "dep": "94"},{"code_commune_insee": "95102", "nom_commune": "BREANCON", "code_postal": "95640", "ligne_5": null, "libelle_d_acheminement": "BREANCON", "coordonnees_geographiques": {"lon": 2.023077572, "lat": 49.149171382}, "dep": "95"},{"code_commune_insee": "95183", "nom_commune": "COURDIMANCHE", "code_postal": "95800", "ligne_5": null, "libelle_d_acheminement": "COURDIMANCHE", "coordonnees_geographiques": {"lon": 1.998749157, "lat": 49.041098761}, "dep": "95"},{"code_commune_insee": "95301", "nom_commune": "HAUTE ISLE", "code_postal": "95780", "ligne_5": null, "libelle_d_acheminement": "HAUTE ISLE", "coordonnees_geographiques": {"lon": 1.663060183, "lat": 49.08347563}, "dep": "95"},{"code_commune_insee": "95313", "nom_commune": "L ISLE ADAM", "code_postal": "95290", "ligne_5": null, "libelle_d_acheminement": "L ISLE ADAM", "coordonnees_geographiques": {"lon": 2.23444498, "lat": 49.107552227}, "dep": "95"},{"code_commune_insee": "95427", "nom_commune": "MONTMAGNY", "code_postal": "95360", "ligne_5": null, "libelle_d_acheminement": "MONTMAGNY", "coordonnees_geographiques": {"lon": 2.345419123, "lat": 48.970064721}, "dep": "95"},{"code_commune_insee": "95541", "nom_commune": "ST CLAIR SUR EPTE", "code_postal": "95770", "ligne_5": null, "libelle_d_acheminement": "ST CLAIR SUR EPTE", "coordonnees_geographiques": {"lon": 1.703014579, "lat": 49.213259944}, "dep": "95"},{"code_commune_insee": "75112", "nom_commune": "PARIS 12", "code_postal": "75012", "ligne_5": null, "libelle_d_acheminement": "PARIS", "coordonnees_geographiques": {"lon": 2.42138541, "lat": 48.834961818}, "dep": "75"},{"code_commune_insee": "77032", "nom_commune": "BETON BAZOCHES", "code_postal": "77320", "ligne_5": null, "libelle_d_acheminement": "BETON BAZOCHES", "coordonnees_geographiques": {"lon": 3.246286861, "lat": 48.707618398}, "dep": "77"},{"code_commune_insee": "77057", "nom_commune": "BUSSIERES", "code_postal": "77750", "ligne_5": null, "libelle_d_acheminement": "BUSSIERES", "coordonnees_geographiques": {"lon": 3.237129977, "lat": 48.926760649}, "dep": "77"},{"code_commune_insee": "77195", "nom_commune": "FOUJU", "code_postal": "77390", "ligne_5": null, "libelle_d_acheminement": "FOUJU", "coordonnees_geographiques": {"lon": 2.765323151, "lat": 48.587557939}, "dep": "77"},{"code_commune_insee": "77286", "nom_commune": "MEIGNEUX", "code_postal": "77520", "ligne_5": null, "libelle_d_acheminement": "MEIGNEUX", "coordonnees_geographiques": {"lon": 3.097160667, "lat": 48.513544233}, "dep": "77"},{"code_commune_insee": "77293", "nom_commune": "MISY SUR YONNE", "code_postal": "77130", "ligne_5": null, "libelle_d_acheminement": "MISY SUR YONNE", "coordonnees_geographiques": {"lon": 3.095115023, "lat": 48.365492628}, "dep": "77"},{"code_commune_insee": "77308", "nom_commune": "MONTGE EN GOELE", "code_postal": "77230", "ligne_5": null, "libelle_d_acheminement": "MONTGE EN GOELE", "coordonnees_geographiques": {"lon": 2.74358632, "lat": 49.029692608}, "dep": "77"},{"code_commune_insee": "77467", "nom_commune": "LA TOMBE", "code_postal": "77130", "ligne_5": null, "libelle_d_acheminement": "LA TOMBE", "coordonnees_geographiques": {"lon": 3.09317412, "lat": 48.386672953}, "dep": "77"},{"code_commune_insee": "77524", "nom_commune": "VIMPELLES", "code_postal": "77520", "ligne_5": null, "libelle_d_acheminement": "VIMPELLES", "coordonnees_geographiques": {"lon": 3.166001583, "lat": 48.443236814}, "dep": "77"},{"code_commune_insee": "78404", "nom_commune": "MILLEMONT", "code_postal": "78940", "ligne_5": null, "libelle_d_acheminement": "MILLEMONT", "coordonnees_geographiques": {"lon": 1.725974842, "lat": 48.807997958}, "dep": "78"},{"code_commune_insee": "78601", "nom_commune": "SONCHAMP", "code_postal": "78120", "ligne_5": null, "libelle_d_acheminement": "SONCHAMP", "coordonnees_geographiques": {"lon": 1.868745798, "lat": 48.588094376}, "dep": "78"},{"code_commune_insee": "78674", "nom_commune": "VILLEPREUX", "code_postal": "78450", "ligne_5": null, "libelle_d_acheminement": "VILLEPREUX", "coordonnees_geographiques": {"lon": 2.012426837, "lat": 48.831106067}, "dep": "78"},{"code_commune_insee": "91041", "nom_commune": "AVRAINVILLE", "code_postal": "91630", "ligne_5": null, "libelle_d_acheminement": "AVRAINVILLE", "coordonnees_geographiques": {"lon": 2.243918856, "lat": 48.557349367}, "dep": "91"},{"code_commune_insee": "91112", "nom_commune": "BROUY", "code_postal": "91150", "ligne_5": null, "libelle_d_acheminement": "BROUY", "coordonnees_geographiques": {"lon": 2.289361406, "lat": 48.326600472}, "dep": "91"},{"code_commune_insee": "91568", "nom_commune": "ST MAURICE MONTCOURONNE", "code_postal": "91530", "ligne_5": null, "libelle_d_acheminement": "ST MAURICE MONTCOURONNE", "coordonnees_geographiques": {"lon": 2.120556534, "lat": 48.578810246}, "dep": "91"},{"code_commune_insee": "91679", "nom_commune": "VILLIERS LE BACLE", "code_postal": "91190", "ligne_5": null, "libelle_d_acheminement": "VILLIERS LE BACLE", "coordonnees_geographiques": {"lon": 2.122000123, "lat": 48.729064972}, "dep": "91"},{"code_commune_insee": "91691", "nom_commune": "YERRES", "code_postal": "91330", "ligne_5": null, "libelle_d_acheminement": "YERRES", "coordonnees_geographiques": {"lon": 2.493068637, "lat": 48.71619444}, "dep": "91"},{"code_commune_insee": "93055", "nom_commune": "PANTIN", "code_postal": "93500", "ligne_5": null, "libelle_d_acheminement": "PANTIN", "coordonnees_geographiques": {"lon": 2.409100445, "lat": 48.898544399}, "dep": "93"},{"code_commune_insee": "94017", "nom_commune": "CHAMPIGNY SUR MARNE", "code_postal": "94500", "ligne_5": null, "libelle_d_acheminement": "CHAMPIGNY SUR MARNE", "coordonnees_geographiques": {"lon": 2.516989292, "lat": 48.817396568}, "dep": "94"},{"code_commune_insee": "95176", "nom_commune": "CORMEILLES EN PARISIS", "code_postal": "95240", "ligne_5": null, "libelle_d_acheminement": "CORMEILLES EN PARISIS", "coordonnees_geographiques": {"lon": 2.199199792, "lat": 48.968653473}, "dep": "95"},{"code_commune_insee": "95256", "nom_commune": "FREPILLON", "code_postal": "95740", "ligne_5": null, "libelle_d_acheminement": "FREPILLON", "coordonnees_geographiques": {"lon": 2.205080296, "lat": 49.049985455}, "dep": "95"},{"code_commune_insee": "95424", "nom_commune": "MONTIGNY LES CORMEILLES", "code_postal": "95370", "ligne_5": null, "libelle_d_acheminement": "MONTIGNY LES CORMEILLES", "coordonnees_geographiques": {"lon": 2.194320017, "lat": 48.993711113}, "dep": "95"},{"code_commune_insee": "95428", "nom_commune": "MONTMORENCY", "code_postal": "95160", "ligne_5": null, "libelle_d_acheminement": "MONTMORENCY", "coordonnees_geographiques": {"lon": 2.320739048, "lat": 48.991738548}, "dep": "95"},{"code_commune_insee": "95566", "nom_commune": "ST MARTIN DU TERTRE", "code_postal": "95270", "ligne_5": null, "libelle_d_acheminement": "ST MARTIN DU TERTRE", "coordonnees_geographiques": {"lon": 2.335125035, "lat": 49.103623719}, "dep": "95"},{"code_commune_insee": "95572", "nom_commune": "ST OUEN L AUMONE", "code_postal": "95310", "ligne_5": null, "libelle_d_acheminement": "ST OUEN L AUMONE", "coordonnees_geographiques": {"lon": 2.129180256, "lat": 49.044487055}, "dep": "95"},{"code_commune_insee": "95607", "nom_commune": "TAVERNY", "code_postal": "95150", "ligne_5": null, "libelle_d_acheminement": "TAVERNY", "coordonnees_geographiques": {"lon": 2.220661508, "lat": 49.026361092}, "dep": "95"},{"code_commune_insee": "77020", "nom_commune": "BANNOST VILLEGAGNON", "code_postal": "77970", "ligne_5": null, "libelle_d_acheminement": "BANNOST VILLEGAGNON", "coordonnees_geographiques": {"lon": 3.19174446, "lat": 48.675542321}, "dep": "77"},{"code_commune_insee": "77033", "nom_commune": "BEZALLES", "code_postal": "77970", "ligne_5": null, "libelle_d_acheminement": "BEZALLES", "coordonnees_geographiques": {"lon": 3.240070037, "lat": 48.667315384}, "dep": "77"},{"code_commune_insee": "77063", "nom_commune": "LA CELLE SUR MORIN", "code_postal": "77515", "ligne_5": null, "libelle_d_acheminement": "LA CELLE SUR MORIN", "coordonnees_geographiques": {"lon": 2.971811391, "lat": 48.797009225}, "dep": "77"},{"code_commune_insee": "77085", "nom_commune": "CHANTELOUP EN BRIE", "code_postal": "77600", "ligne_5": null, "libelle_d_acheminement": "CHANTELOUP EN BRIE", "coordonnees_geographiques": {"lon": 2.740089519, "lat": 48.858225613}, "dep": "77"},{"code_commune_insee": "77110", "nom_commune": "CHENOU", "code_postal": "77570", "ligne_5": null, "libelle_d_acheminement": "CHENOU", "coordonnees_geographiques": {"lon": 2.652476368, "lat": 48.165124346}, "dep": "77"},{"code_commune_insee": "77255", "nom_commune": "LIVRY SUR SEINE", "code_postal": "77000", "ligne_5": null, "libelle_d_acheminement": "LIVRY SUR SEINE", "coordonnees_geographiques": {"lon": 2.685681399, "lat": 48.505178762}, "dep": "77"},{"code_commune_insee": "77257", "nom_commune": "LIZY SUR OURCQ", "code_postal": "77440", "ligne_5": null, "libelle_d_acheminement": "LIZY SUR OURCQ", "coordonnees_geographiques": {"lon": 3.01911244, "lat": 49.035262879}, "dep": "77"},{"code_commune_insee": "77312", "nom_commune": "MONTIGNY SUR LOING", "code_postal": "77690", "ligne_5": null, "libelle_d_acheminement": "MONTIGNY SUR LOING", "coordonnees_geographiques": {"lon": 2.750259737, "lat": 48.340635219}, "dep": "77"},{"code_commune_insee": "77313", "nom_commune": "MONTMACHOUX", "code_postal": "77940", "ligne_5": null, "libelle_d_acheminement": "MONTMACHOUX", "coordonnees_geographiques": {"lon": 2.99278843, "lat": 48.31979932}, "dep": "77"},{"code_commune_insee": "77335", "nom_commune": "CHAUCONIN NEUFMONTIERS", "code_postal": "77124", "ligne_5": "NEUFMONTIERS LES MEAUX", "libelle_d_acheminement": "CHAUCONIN NEUFMONTIERS", "coordonnees_geographiques": {"lon": 2.831255098, "lat": 48.972295956}, "dep": "77"},{"code_commune_insee": "77460", "nom_commune": "TANCROU", "code_postal": "77440", "ligne_5": null, "libelle_d_acheminement": "TANCROU", "coordonnees_geographiques": {"lon": 3.080175508, "lat": 49.003863277}, "dep": "77"},{"code_commune_insee": "77474", "nom_commune": "TRILBARDOU", "code_postal": "77450", "ligne_5": null, "libelle_d_acheminement": "TRILBARDOU", "coordonnees_geographiques": {"lon": 2.804740515, "lat": 48.948721634}, "dep": "77"},{"code_commune_insee": "77493", "nom_commune": "VERNEUIL L ETANG", "code_postal": "77390", "ligne_5": null, "libelle_d_acheminement": "VERNEUIL L ETANG", "coordonnees_geographiques": {"lon": 2.831927646, "lat": 48.636494239}, "dep": "77"},{"code_commune_insee": "77498", "nom_commune": "VIGNELY", "code_postal": "77450", "ligne_5": null, "libelle_d_acheminement": "VIGNELY", "coordonnees_geographiques": {"lon": 2.815583898, "lat": 48.931868809}, "dep": "77"},{"code_commune_insee": "77534", "nom_commune": "YEBLES", "code_postal": "77390", "ligne_5": null, "libelle_d_acheminement": "YEBLES", "coordonnees_geographiques": {"lon": 2.769101712, "lat": 48.637231884}, "dep": "77"},{"code_commune_insee": "78571", "nom_commune": "ST NOM LA BRETECHE", "code_postal": "78860", "ligne_5": null, "libelle_d_acheminement": "ST NOM LA BRETECHE", "coordonnees_geographiques": {"lon": 2.018960257, "lat": 48.863157933}, "dep": "78"},{"code_commune_insee": "78642", "nom_commune": "VERNEUIL SUR SEINE", "code_postal": "78480", "ligne_5": null, "libelle_d_acheminement": "VERNEUIL SUR SEINE", "coordonnees_geographiques": {"lon": 1.962958272, "lat": 48.986978789}, "dep": "78"},{"code_commune_insee": "78677", "nom_commune": "VILLETTE", "code_postal": "78930", "ligne_5": null, "libelle_d_acheminement": "VILLETTE", "coordonnees_geographiques": {"lon": 1.693603321, "lat": 48.926577457}, "dep": "78"},{"code_commune_insee": "91001", "nom_commune": "ABBEVILLE LA RIVIERE", "code_postal": "91150", "ligne_5": null, "libelle_d_acheminement": "ABBEVILLE LA RIVIERE", "coordonnees_geographiques": {"lon": 2.191127606, "lat": 48.343284985}, "dep": "91"},{"code_commune_insee": "91122", "nom_commune": "BURES SUR YVETTE", "code_postal": "91440", "ligne_5": null, "libelle_d_acheminement": "BURES SUR YVETTE", "coordonnees_geographiques": {"lon": 2.158507422, "lat": 48.693040121}, "dep": "91"},{"code_commune_insee": "91521", "nom_commune": "RIS ORANGIS", "code_postal": "91130", "ligne_5": null, "libelle_d_acheminement": "RIS ORANGIS", "coordonnees_geographiques": {"lon": 2.40818892, "lat": 48.645608238}, "dep": "91"},{"code_commune_insee": "91619", "nom_commune": "TORFOU", "code_postal": "91730", "ligne_5": null, "libelle_d_acheminement": "TORFOU", "coordonnees_geographiques": {"lon": 2.234442297, "lat": 48.531838018}, "dep": "91"},{"code_commune_insee": "93029", "nom_commune": "DRANCY", "code_postal": "93700", "ligne_5": null, "libelle_d_acheminement": "DRANCY", "coordonnees_geographiques": {"lon": 2.444562389, "lat": 48.923469067}, "dep": "93"},{"code_commune_insee": "93066", "nom_commune": "ST DENIS", "code_postal": "93200", "ligne_5": null, "libelle_d_acheminement": "ST DENIS", "coordonnees_geographiques": {"lon": 2.359289324, "lat": 48.929643578}, "dep": "93"},{"code_commune_insee": "94048", "nom_commune": "MAROLLES EN BRIE", "code_postal": "94440", "ligne_5": null, "libelle_d_acheminement": "MAROLLES EN BRIE", "coordonnees_geographiques": {"lon": 2.554858687, "lat": 48.739547757}, "dep": "94"},{"code_commune_insee": "95011", "nom_commune": "AMBLEVILLE", "code_postal": "95710", "ligne_5": null, "libelle_d_acheminement": "AMBLEVILLE", "coordonnees_geographiques": {"lon": 1.694631625, "lat": 49.150476298}, "dep": "95"},{"code_commune_insee": "95019", "nom_commune": "ARNOUVILLE", "code_postal": "95400", "ligne_5": null, "libelle_d_acheminement": "ARNOUVILLE", "coordonnees_geographiques": {"lon": 2.417139933, "lat": 48.986083553}, "dep": "95"},{"code_commune_insee": "95149", "nom_commune": "CHAUMONTEL", "code_postal": "95270", "ligne_5": null, "libelle_d_acheminement": "CHAUMONTEL", "coordonnees_geographiques": {"lon": 2.435953796, "lat": 49.128484415}, "dep": "95"},{"code_commune_insee": "95447", "nom_commune": "NEUILLY EN VEXIN", "code_postal": "95640", "ligne_5": null, "libelle_d_acheminement": "NEUILLY EN VEXIN", "coordonnees_geographiques": {"lon": 1.97935129, "lat": 49.174032903}, "dep": "95"},{"code_commune_insee": "95529", "nom_commune": "RONQUEROLLES", "code_postal": "95340", "ligne_5": null, "libelle_d_acheminement": "RONQUEROLLES", "coordonnees_geographiques": {"lon": 2.212832895, "lat": 49.167578463}, "dep": "95"},{"code_commune_insee": "95574", "nom_commune": "ST PRIX", "code_postal": "95390", "ligne_5": null, "libelle_d_acheminement": "ST PRIX", "coordonnees_geographiques": {"lon": 2.27027047, "lat": 49.020813573}, "dep": "95"},{"code_commune_insee": "77012", "nom_commune": "AUGERS EN BRIE", "code_postal": "77560", "ligne_5": null, "libelle_d_acheminement": "AUGERS EN BRIE", "coordonnees_geographiques": {"lon": 3.352562231, "lat": 48.666829884}, "dep": "77"},{"code_commune_insee": "77013", "nom_commune": "AULNOY", "code_postal": "77120", "ligne_5": null, "libelle_d_acheminement": "AULNOY", "coordonnees_geographiques": {"lon": 3.089501816, "lat": 48.848856082}, "dep": "77"},{"code_commune_insee": "77106", "nom_commune": "CHAUFFRY", "code_postal": "77169", "ligne_5": null, "libelle_d_acheminement": "CHAUFFRY", "coordonnees_geographiques": {"lon": 3.180787206, "lat": 48.821576249}, "dep": "77"},{"code_commune_insee": "77130", "nom_commune": "COULOMMES", "code_postal": "77580", "ligne_5": null, "libelle_d_acheminement": "COULOMMES", "coordonnees_geographiques": {"lon": 2.929310544, "lat": 48.891725411}, "dep": "77"},{"code_commune_insee": "77168", "nom_commune": "EGREVILLE", "code_postal": "77620", "ligne_5": null, "libelle_d_acheminement": "EGREVILLE", "coordonnees_geographiques": {"lon": 2.88394777, "lat": 48.182103266}, "dep": "77"},{"code_commune_insee": "77171", "nom_commune": "ESBLY", "code_postal": "77450", "ligne_5": null, "libelle_d_acheminement": "ESBLY", "coordonnees_geographiques": {"lon": 2.812647734, "lat": 48.90111396}, "dep": "77"},{"code_commune_insee": "77209", "nom_commune": "GOUVERNES", "code_postal": "77400", "ligne_5": null, "libelle_d_acheminement": "GOUVERNES", "coordonnees_geographiques": {"lon": 2.694433598, "lat": 48.858129416}, "dep": "77"},{"code_commune_insee": "77226", "nom_commune": "HERICY", "code_postal": "77850", "ligne_5": null, "libelle_d_acheminement": "HERICY", "coordonnees_geographiques": {"lon": 2.788647722, "lat": 48.441915491}, "dep": "77"},{"code_commune_insee": "77229", "nom_commune": "LA HOUSSAYE EN BRIE", "code_postal": "77610", "ligne_5": null, "libelle_d_acheminement": "LA HOUSSAYE EN BRIE", "coordonnees_geographiques": {"lon": 2.867850292, "lat": 48.75582016}, "dep": "77"},{"code_commune_insee": "77309", "nom_commune": "MONTHYON", "code_postal": "77122", "ligne_5": null, "libelle_d_acheminement": "MONTHYON", "coordonnees_geographiques": {"lon": 2.832127797, "lat": 49.009921788}, "dep": "77"},{"code_commune_insee": "77328", "nom_commune": "NANTEAU SUR ESSONNE", "code_postal": "77760", "ligne_5": null, "libelle_d_acheminement": "NANTEAU SUR ESSONNE", "coordonnees_geographiques": {"lon": 2.426171485, "lat": 48.320386101}, "dep": "77"},{"code_commune_insee": "77353", "nom_commune": "PALEY", "code_postal": "77710", "ligne_5": null, "libelle_d_acheminement": "PALEY", "coordonnees_geographiques": {"lon": 2.854013082, "lat": 48.241217748}, "dep": "77"},{"code_commune_insee": "77416", "nom_commune": "ST JUST EN BRIE", "code_postal": "77370", "ligne_5": null, "libelle_d_acheminement": "ST JUST EN BRIE", "coordonnees_geographiques": {"lon": 3.120998294, "lat": 48.610922199}, "dep": "77"},{"code_commune_insee": "78009", "nom_commune": "ALLAINVILLE", "code_postal": "78660", "ligne_5": null, "libelle_d_acheminement": "ALLAINVILLE AUX BOIS", "coordonnees_geographiques": {"lon": 1.902700771, "lat": 48.467503784}, "dep": "78"},{"code_commune_insee": "78133", "nom_commune": "CHAMBOURCY", "code_postal": "78240", "ligne_5": null, "libelle_d_acheminement": "CHAMBOURCY", "coordonnees_geographiques": {"lon": 2.032880473, "lat": 48.896484237}, "dep": "78"},{"code_commune_insee": "78407", "nom_commune": "MITTAINVILLE", "code_postal": "78125", "ligne_5": null, "libelle_d_acheminement": "MITTAINVILLE", "coordonnees_geographiques": {"lon": 1.635730273, "lat": 48.662766364}, "dep": "78"},{"code_commune_insee": "78497", "nom_commune": "POIGNY LA FORET", "code_postal": "78125", "ligne_5": null, "libelle_d_acheminement": "POIGNY LA FORET", "coordonnees_geographiques": {"lon": 1.754058936, "lat": 48.683132349}, "dep": "78"},{"code_commune_insee": "78597", "nom_commune": "SOINDRES", "code_postal": "78200", "ligne_5": null, "libelle_d_acheminement": "SOINDRES", "coordonnees_geographiques": {"lon": 1.671553521, "lat": 48.953667315}, "dep": "78"},{"code_commune_insee": "91114", "nom_commune": "BRUNOY", "code_postal": "91800", "ligne_5": null, "libelle_d_acheminement": "BRUNOY", "coordonnees_geographiques": {"lon": 2.503772936, "lat": 48.696482514}, "dep": "91"},{"code_commune_insee": "91639", "nom_commune": "VAYRES SUR ESSONNE", "code_postal": "91820", "ligne_5": null, "libelle_d_acheminement": "VAYRES SUR ESSONNE", "coordonnees_geographiques": {"lon": 2.346279905, "lat": 48.431731467}, "dep": "91"},{"code_commune_insee": "92020", "nom_commune": "CHATILLON", "code_postal": "92320", "ligne_5": null, "libelle_d_acheminement": "CHATILLON", "coordonnees_geographiques": {"lon": 2.288340335, "lat": 48.80363284}, "dep": "92"},{"code_commune_insee": "93046", "nom_commune": "LIVRY GARGAN", "code_postal": "93190", "ligne_5": null, "libelle_d_acheminement": "LIVRY GARGAN", "coordonnees_geographiques": {"lon": 2.535619525, "lat": 48.920002762}, "dep": "93"},{"code_commune_insee": "94069", "nom_commune": "ST MAURICE", "code_postal": "94410", "ligne_5": null, "libelle_d_acheminement": "ST MAURICE", "coordonnees_geographiques": {"lon": 2.437334691, "lat": 48.818390376}, "dep": "94"},{"code_commune_insee": "95144", "nom_commune": "CHATENAY EN FRANCE", "code_postal": "95190", "ligne_5": null, "libelle_d_acheminement": "CHATENAY EN FRANCE", "coordonnees_geographiques": {"lon": 2.462793667, "lat": 49.064897361}, "dep": "95"},{"code_commune_insee": "95379", "nom_commune": "MAUDETOUR EN VEXIN", "code_postal": "95420", "ligne_5": null, "libelle_d_acheminement": "MAUDETOUR EN VEXIN", "coordonnees_geographiques": {"lon": 1.783647016, "lat": 49.111179951}, "dep": "95"},{"code_commune_insee": "95585", "nom_commune": "SARCELLES", "code_postal": "95200", "ligne_5": null, "libelle_d_acheminement": "SARCELLES", "coordonnees_geographiques": {"lon": 2.381117319, "lat": 48.990236727}, "dep": "95"},{"code_commune_insee": "75109", "nom_commune": "PARIS 09", "code_postal": "75009", "ligne_5": null, "libelle_d_acheminement": "PARIS", "coordonnees_geographiques": {"lon": 2.337456318, "lat": 48.87716521}, "dep": "75"},{"code_commune_insee": "75113", "nom_commune": "PARIS 13", "code_postal": "75013", "ligne_5": null, "libelle_d_acheminement": "PARIS", "coordonnees_geographiques": {"lon": 2.362253766, "lat": 48.828424546}, "dep": "75"},{"code_commune_insee": "77088", "nom_commune": "LA CHAPELLE LA REINE", "code_postal": "77760", "ligne_5": null, "libelle_d_acheminement": "LA CHAPELLE LA REINE", "coordonnees_geographiques": {"lon": 2.566616164, "lat": 48.315826462}, "dep": "77"},{"code_commune_insee": "77131", "nom_commune": "COULOMMIERS", "code_postal": "77120", "ligne_5": null, "libelle_d_acheminement": "COULOMMIERS", "coordonnees_geographiques": {"lon": 3.091269785, "lat": 48.81234041}, "dep": "77"},{"code_commune_insee": "77147", "nom_commune": "LA CROIX EN BRIE", "code_postal": "77370", "ligne_5": null, "libelle_d_acheminement": "LA CROIX EN BRIE", "coordonnees_geographiques": {"lon": 3.071076517, "lat": 48.594437028}, "dep": "77"},{"code_commune_insee": "77227", "nom_commune": "HERME", "code_postal": "77114", "ligne_5": null, "libelle_d_acheminement": "HERME", "coordonnees_geographiques": {"lon": 3.34604609, "lat": 48.486150295}, "dep": "77"},{"code_commune_insee": "77291", "nom_commune": "LE MESNIL AMELOT", "code_postal": "77990", "ligne_5": null, "libelle_d_acheminement": "LE MESNIL AMELOT", "coordonnees_geographiques": {"lon": 2.596383018, "lat": 49.016113678}, "dep": "77"},{"code_commune_insee": "77320", "nom_commune": "MOUROUX", "code_postal": "77120", "ligne_5": null, "libelle_d_acheminement": "MOUROUX", "coordonnees_geographiques": {"lon": 3.050708392, "lat": 48.827180332}, "dep": "77"},{"code_commune_insee": "77363", "nom_commune": "LE PIN", "code_postal": "77181", "ligne_5": null, "libelle_d_acheminement": "LE PIN", "coordonnees_geographiques": {"lon": 2.628103898, "lat": 48.914641715}, "dep": "77"},{"code_commune_insee": "77431", "nom_commune": "ST PIERRE LES NEMOURS", "code_postal": "77140", "ligne_5": null, "libelle_d_acheminement": "ST PIERRE LES NEMOURS", "coordonnees_geographiques": {"lon": 2.665927488, "lat": 48.264824993}, "dep": "77"},{"code_commune_insee": "77500", "nom_commune": "VILLEBEON", "code_postal": "77710", "ligne_5": null, "libelle_d_acheminement": "VILLEBEON", "coordonnees_geographiques": {"lon": 2.92852151, "lat": 48.205064903}, "dep": "77"},{"code_commune_insee": "78006", "nom_commune": "ADAINVILLE", "code_postal": "78113", "ligne_5": null, "libelle_d_acheminement": "ADAINVILLE", "coordonnees_geographiques": {"lon": 1.662453862, "lat": 48.72032203}, "dep": "78"},{"code_commune_insee": "78324", "nom_commune": "JOUY MAUVOISIN", "code_postal": "78200", "ligne_5": null, "libelle_d_acheminement": "JOUY MAUVOISIN", "coordonnees_geographiques": {"lon": 1.646636346, "lat": 48.974147589}, "dep": "78"},{"code_commune_insee": "78350", "nom_commune": "LOUVECIENNES", "code_postal": "78430", "ligne_5": null, "libelle_d_acheminement": "LOUVECIENNES", "coordonnees_geographiques": {"lon": 2.113551836, "lat": 48.859227566}, "dep": "78"},{"code_commune_insee": "78444", "nom_commune": "NEAUPHLETTE", "code_postal": "78980", "ligne_5": null, "libelle_d_acheminement": "NEAUPHLETTE", "coordonnees_geographiques": {"lon": 1.54283833, "lat": 48.935504487}, "dep": "78"},{"code_commune_insee": "78561", "nom_commune": "ST LAMBERT", "code_postal": "78470", "ligne_5": null, "libelle_d_acheminement": "ST LAMBERT DES BOIS", "coordonnees_geographiques": {"lon": 2.006561898, "lat": 48.733928044}, "dep": "78"},{"code_commune_insee": "91286", "nom_commune": "GRIGNY", "code_postal": "91350", "ligne_5": null, "libelle_d_acheminement": "GRIGNY", "coordonnees_geographiques": {"lon": 2.38747617, "lat": 48.657051798}, "dep": "91"},{"code_commune_insee": "91581", "nom_commune": "ST YON", "code_postal": "91650", "ligne_5": null, "libelle_d_acheminement": "ST YON", "coordonnees_geographiques": {"lon": 2.19200076, "lat": 48.561147043}, "dep": "91"},{"code_commune_insee": "92002", "nom_commune": "ANTONY", "code_postal": "92160", "ligne_5": null, "libelle_d_acheminement": "ANTONY", "coordonnees_geographiques": {"lon": 2.299028344, "lat": 48.749986765}, "dep": "92"},{"code_commune_insee": "93057", "nom_commune": "LES PAVILLONS SOUS BOIS", "code_postal": "93320", "ligne_5": null, "libelle_d_acheminement": "LES PAVILLONS SOUS BOIS", "coordonnees_geographiques": {"lon": 2.503357206, "lat": 48.908338487}, "dep": "93"},{"code_commune_insee": "95116", "nom_commune": "BRUYERES SUR OISE", "code_postal": "95820", "ligne_5": null, "libelle_d_acheminement": "BRUYERES SUR OISE", "coordonnees_geographiques": {"lon": 2.329622988, "lat": 49.160642757}, "dep": "95"},{"code_commune_insee": "95303", "nom_commune": "LE HEAULME", "code_postal": "95640", "ligne_5": null, "libelle_d_acheminement": "LE HEAULME", "coordonnees_geographiques": {"lon": 2.000251949, "lat": 49.166960753}, "dep": "95"},{"code_commune_insee": "95493", "nom_commune": "LE PLESSIS LUZARCHES", "code_postal": "95270", "ligne_5": null, "libelle_d_acheminement": "LE PLESSIS LUZARCHES", "coordonnees_geographiques": {"lon": 2.456045243, "lat": 49.096105843}, "dep": "95"},{"code_commune_insee": "95582", "nom_commune": "SANNOIS", "code_postal": "95110", "ligne_5": null, "libelle_d_acheminement": "SANNOIS", "coordonnees_geographiques": {"lon": 2.252832517, "lat": 48.971927968}, "dep": "95"},{"code_commune_insee": "77038", "nom_commune": "BOISSETTES", "code_postal": "77350", "ligne_5": null, "libelle_d_acheminement": "BOISSETTES", "coordonnees_geographiques": {"lon": 2.614376556, "lat": 48.523254255}, "dep": "77"},{"code_commune_insee": "77101", "nom_commune": "CHATENAY SUR SEINE", "code_postal": "77126", "ligne_5": null, "libelle_d_acheminement": "CHATENAY SUR SEINE", "coordonnees_geographiques": {"lon": 3.094788304, "lat": 48.420082052}, "dep": "77"},{"code_commune_insee": "77129", "nom_commune": "COULOMBS EN VALOIS", "code_postal": "77840", "ligne_5": null, "libelle_d_acheminement": "COULOMBS EN VALOIS", "coordonnees_geographiques": {"lon": 3.128065854, "lat": 49.077920751}, "dep": "77"},{"code_commune_insee": "77141", "nom_commune": "COUTEVROULT", "code_postal": "77580", "ligne_5": null, "libelle_d_acheminement": "COUTEVROULT", "coordonnees_geographiques": {"lon": 2.847578293, "lat": 48.853013887}, "dep": "77"},{"code_commune_insee": "77152", "nom_commune": "DAMMARIE LES LYS", "code_postal": "77190", "ligne_5": null, "libelle_d_acheminement": "DAMMARIE LES LYS", "coordonnees_geographiques": {"lon": 2.628755691, "lat": 48.513676673}, "dep": "77"},{"code_commune_insee": "77175", "nom_commune": "EVRY GREGY SUR YERRE", "code_postal": "77166", "ligne_5": null, "libelle_d_acheminement": "EVRY GREGY SUR YERRE", "coordonnees_geographiques": {"lon": 2.639539278, "lat": 48.653675957}, "dep": "77"},{"code_commune_insee": "77180", "nom_commune": "FEROLLES ATTILLY", "code_postal": "77150", "ligne_5": null, "libelle_d_acheminement": "FEROLLES ATTILLY", "coordonnees_geographiques": {"lon": 2.639187547, "lat": 48.733934618}, "dep": "77"},{"code_commune_insee": "77222", "nom_commune": "GUIGNES", "code_postal": "77390", "ligne_5": null, "libelle_d_acheminement": "GUIGNES", "coordonnees_geographiques": {"lon": 2.80035712, "lat": 48.635739422}, "dep": "77"},{"code_commune_insee": "77231", "nom_commune": "ISLES LES MELDEUSES", "code_postal": "77440", "ligne_5": null, "libelle_d_acheminement": "ISLES LES MELDEUSES", "coordonnees_geographiques": {"lon": 3.012873751, "lat": 48.997894222}, "dep": "77"},{"code_commune_insee": "77287", "nom_commune": "MEILLERAY", "code_postal": "77320", "ligne_5": null, "libelle_d_acheminement": "MEILLERAY", "coordonnees_geographiques": {"lon": 3.418021359, "lat": 48.797631613}, "dep": "77"},{"code_commune_insee": "77288", "nom_commune": "MELUN", "code_postal": "77000", "ligne_5": null, "libelle_d_acheminement": "MELUN", "coordonnees_geographiques": {"lon": 2.657923631, "lat": 48.544316452}, "dep": "77"},{"code_commune_insee": "77298", "nom_commune": "MONS EN MONTOIS", "code_postal": "77520", "ligne_5": null, "libelle_d_acheminement": "MONS EN MONTOIS", "coordonnees_geographiques": {"lon": 3.140210332, "lat": 48.491651911}, "dep": "77"},{"code_commune_insee": "77302", "nom_commune": "MONTCOURT FROMONVILLE", "code_postal": "77140", "ligne_5": null, "libelle_d_acheminement": "MONTCOURT FROMONVILLE", "coordonnees_geographiques": {"lon": 2.711929643, "lat": 48.298981088}, "dep": "77"},{"code_commune_insee": "77316", "nom_commune": "MORET LOING ET ORVANNE", "code_postal": "77250", "ligne_5": "VENEUX LES SABLONS", "libelle_d_acheminement": "MORET LOING ET ORVANNE", "coordonnees_geographiques": {"lon": 2.819738834, "lat": 48.354686543}, "dep": "77"},{"code_commune_insee": "77359", "nom_commune": "PERTHES", "code_postal": "77930", "ligne_5": null, "libelle_d_acheminement": "PERTHES", "coordonnees_geographiques": {"lon": 2.550356243, "lat": 48.479804136}, "dep": "77"},{"code_commune_insee": "77403", "nom_commune": "ST BRICE", "code_postal": "77160", "ligne_5": null, "libelle_d_acheminement": "ST BRICE", "coordonnees_geographiques": {"lon": 3.334229852, "lat": 48.571582676}, "dep": "77"},{"code_commune_insee": "77411", "nom_commune": "ST GERMAIN SOUS DOUE", "code_postal": "77169", "ligne_5": null, "libelle_d_acheminement": "ST GERMAIN SOUS DOUE", "coordonnees_geographiques": {"lon": 3.138883483, "lat": 48.85114662}, "dep": "77"},{"code_commune_insee": "77448", "nom_commune": "SEPT SORTS", "code_postal": "77260", "ligne_5": null, "libelle_d_acheminement": "SEPT SORTS", "coordonnees_geographiques": {"lon": 3.105618023, "lat": 48.939820491}, "dep": "77"},{"code_commune_insee": "77459", "nom_commune": "SOURDUN", "code_postal": "77171", "ligne_5": null, "libelle_d_acheminement": "SOURDUN", "coordonnees_geographiques": {"lon": 3.363622323, "lat": 48.536421311}, "dep": "77"},{"code_commune_insee": "78354", "nom_commune": "MAGNANVILLE", "code_postal": "78200", "ligne_5": null, "libelle_d_acheminement": "MAGNANVILLE", "coordonnees_geographiques": {"lon": 1.6855957, "lat": 48.968692133}, "dep": "78"},{"code_commune_insee": "78358", "nom_commune": "MAISONS LAFFITTE", "code_postal": "78600", "ligne_5": null, "libelle_d_acheminement": "MAISONS LAFFITTE", "coordonnees_geographiques": {"lon": 2.152458608, "lat": 48.952574131}, "dep": "78"},{"code_commune_insee": "78513", "nom_commune": "LA QUEUE LES YVELINES", "code_postal": "78940", "ligne_5": null, "libelle_d_acheminement": "LA QUEUE LES YVELINES", "coordonnees_geographiques": {"lon": 1.768277224, "lat": 48.802486955}, "dep": "78"},{"code_commune_insee": "78548", "nom_commune": "ST FORGET", "code_postal": "78720", "ligne_5": null, "libelle_d_acheminement": "ST FORGET", "coordonnees_geographiques": {"lon": 1.997097048, "lat": 48.712874507}, "dep": "78"},{"code_commune_insee": "78562", "nom_commune": "ST LEGER EN YVELINES", "code_postal": "78610", "ligne_5": null, "libelle_d_acheminement": "ST LEGER EN YVELINES", "coordonnees_geographiques": {"lon": 1.759908234, "lat": 48.730259564}, "dep": "78"},{"code_commune_insee": "91471", "nom_commune": "ORSAY", "code_postal": "91400", "ligne_5": "ORSIGNY", "libelle_d_acheminement": "ORSAY", "coordonnees_geographiques": {"lon": 2.187378773, "lat": 48.700274052}, "dep": "91"},{"code_commune_insee": "91645", "nom_commune": "VERRIERES LE BUISSON", "code_postal": "91370", "ligne_5": null, "libelle_d_acheminement": "VERRIERES LE BUISSON", "coordonnees_geographiques": {"lon": 2.252147874, "lat": 48.750419838}, "dep": "91"},{"code_commune_insee": "91649", "nom_commune": "VERT LE PETIT", "code_postal": "91710", "ligne_5": null, "libelle_d_acheminement": "VERT LE PETIT", "coordonnees_geographiques": {"lon": 2.36536749, "lat": 48.551852151}, "dep": "91"},{"code_commune_insee": "91666", "nom_commune": "VILLEJUST", "code_postal": "91140", "ligne_5": null, "libelle_d_acheminement": "VILLEJUST", "coordonnees_geographiques": {"lon": 2.223002267, "lat": 48.67802178}, "dep": "91"},{"code_commune_insee": "94002", "nom_commune": "ALFORTVILLE", "code_postal": "94140", "ligne_5": null, "libelle_d_acheminement": "ALFORTVILLE", "coordonnees_geographiques": {"lon": 2.421407444, "lat": 48.796134091}, "dep": "94"},{"code_commune_insee": "94021", "nom_commune": "CHEVILLY LARUE", "code_postal": "94550", "ligne_5": null, "libelle_d_acheminement": "CHEVILLY LARUE", "coordonnees_geographiques": {"lon": 2.352941911, "lat": 48.76689918}, "dep": "94"},{"code_commune_insee": "94041", "nom_commune": "IVRY SUR SEINE", "code_postal": "94200", "ligne_5": null, "libelle_d_acheminement": "IVRY SUR SEINE", "coordonnees_geographiques": {"lon": 2.387712363, "lat": 48.8122892}, "dep": "94"},{"code_commune_insee": "95018", "nom_commune": "ARGENTEUIL", "code_postal": "95100", "ligne_5": null, "libelle_d_acheminement": "ARGENTEUIL", "coordonnees_geographiques": {"lon": 2.240388744, "lat": 48.951531886}, "dep": "95"},{"code_commune_insee": "95304", "nom_commune": "HEDOUVILLE", "code_postal": "95690", "ligne_5": null, "libelle_d_acheminement": "HEDOUVILLE", "coordonnees_geographiques": {"lon": 2.177108902, "lat": 49.158003218}, "dep": "95"},{"code_commune_insee": "95306", "nom_commune": "HERBLAY SUR SEINE", "code_postal": "95220", "ligne_5": "LA PATTE D OIE", "libelle_d_acheminement": "HERBLAY SUR SEINE", "coordonnees_geographiques": {"lon": 2.150144707, "lat": 49.00057638}, "dep": "95"},{"code_commune_insee": "95543", "nom_commune": "ST CYR EN ARTHIES", "code_postal": "95510", "ligne_5": null, "libelle_d_acheminement": "ST CYR EN ARTHIES", "coordonnees_geographiques": {"lon": 1.741758518, "lat": 49.058913046}, "dep": "95"},{"code_commune_insee": "77096", "nom_commune": "CHARTRETTES", "code_postal": "77590", "ligne_5": null, "libelle_d_acheminement": "CHARTRETTES", "coordonnees_geographiques": {"lon": 2.712859871, "lat": 48.494405785}, "dep": "77"},{"code_commune_insee": "77107", "nom_commune": "CHAUMES EN BRIE", "code_postal": "77390", "ligne_5": null, "libelle_d_acheminement": "CHAUMES EN BRIE", "coordonnees_geographiques": {"lon": 2.845179792, "lat": 48.667432866}, "dep": "77"},{"code_commune_insee": "77258", "nom_commune": "LOGNES", "code_postal": "77185", "ligne_5": null, "libelle_d_acheminement": "LOGNES", "coordonnees_geographiques": {"lon": 2.634038048, "lat": 48.833863469}, "dep": "77"},{"code_commune_insee": "77274", "nom_commune": "MARCILLY", "code_postal": "77139", "ligne_5": null, "libelle_d_acheminement": "MARCILLY", "coordonnees_geographiques": {"lon": 2.88048397, "lat": 49.037148104}, "dep": "77"},{"code_commune_insee": "77318", "nom_commune": "MORTCERF", "code_postal": "77163", "ligne_5": null, "libelle_d_acheminement": "MORTCERF", "coordonnees_geographiques": {"lon": 2.904085319, "lat": 48.782801024}, "dep": "77"},{"code_commune_insee": "77397", "nom_commune": "SAACY SUR MARNE", "code_postal": "77730", "ligne_5": null, "libelle_d_acheminement": "SAACY SUR MARNE", "coordonnees_geographiques": {"lon": 3.217255958, "lat": 48.950991889}, "dep": "77"},{"code_commune_insee": "77424", "nom_commune": "ST MARTIN DU BOSCHET", "code_postal": "77320", "ligne_5": null, "libelle_d_acheminement": "ST MARTIN DU BOSCHET", "coordonnees_geographiques": {"lon": 3.428608536, "lat": 48.732036028}, "dep": "77"},{"code_commune_insee": "77454", "nom_commune": "SOGNOLLES EN MONTOIS", "code_postal": "77520", "ligne_5": null, "libelle_d_acheminement": "SOGNOLLES EN MONTOIS", "coordonnees_geographiques": {"lon": 3.153103494, "lat": 48.518703129}, "dep": "77"},{"code_commune_insee": "78158", "nom_commune": "LE CHESNAY ROCQUENCOURT", "code_postal": "78150", "ligne_5": "PARLY", "libelle_d_acheminement": "LE CHESNAY ROCQUENCOURT", "coordonnees_geographiques": {"lon": 2.119984317, "lat": 48.829192097}, "dep": "78"},{"code_commune_insee": "78220", "nom_commune": "LES ESSARTS LE ROI", "code_postal": "78690", "ligne_5": "ST HUBERT LE ROI", "libelle_d_acheminement": "LES ESSARTS LE ROI", "coordonnees_geographiques": {"lon": 1.895378187, "lat": 48.716251319}, "dep": "78"},{"code_commune_insee": "78550", "nom_commune": "ST GERMAIN DE LA GRANGE", "code_postal": "78640", "ligne_5": null, "libelle_d_acheminement": "ST GERMAIN DE LA GRANGE", "coordonnees_geographiques": {"lon": 1.902385466, "lat": 48.832627363}, "dep": "78"},{"code_commune_insee": "91038", "nom_commune": "AUVERS ST GEORGES", "code_postal": "91580", "ligne_5": null, "libelle_d_acheminement": "AUVERS ST GEORGES", "coordonnees_geographiques": {"lon": 2.226441657, "lat": 48.476771493}, "dep": "91"},{"code_commune_insee": "91243", "nom_commune": "FONTENAY LES BRIIS", "code_postal": "91640", "ligne_5": null, "libelle_d_acheminement": "FONTENAY LES BRIIS", "coordonnees_geographiques": {"lon": 2.164608272, "lat": 48.611100686}, "dep": "91"},{"code_commune_insee": "91333", "nom_commune": "LEUVILLE SUR ORGE", "code_postal": "91310", "ligne_5": null, "libelle_d_acheminement": "LEUVILLE SUR ORGE", "coordonnees_geographiques": {"lon": 2.267751212, "lat": 48.614359916}, "dep": "91"},{"code_commune_insee": "91408", "nom_commune": "MOIGNY SUR ECOLE", "code_postal": "91490", "ligne_5": null, "libelle_d_acheminement": "MOIGNY SUR ECOLE", "coordonnees_geographiques": {"lon": 2.439819687, "lat": 48.437172104}, "dep": "91"},{"code_commune_insee": "91648", "nom_commune": "VERT LE GRAND", "code_postal": "91810", "ligne_5": null, "libelle_d_acheminement": "VERT LE GRAND", "coordonnees_geographiques": {"lon": 2.367706718, "lat": 48.583489821}, "dep": "91"},{"code_commune_insee": "91689", "nom_commune": "WISSOUS", "code_postal": "91320", "ligne_5": null, "libelle_d_acheminement": "WISSOUS", "coordonnees_geographiques": {"lon": 2.329529323, "lat": 48.729690709}, "dep": "91"},{"code_commune_insee": "92023", "nom_commune": "CLAMART", "code_postal": "92140", "ligne_5": null, "libelle_d_acheminement": "CLAMART", "coordonnees_geographiques": {"lon": 2.254300971, "lat": 48.796455388}, "dep": "92"},{"code_commune_insee": "94080", "nom_commune": "VINCENNES", "code_postal": "94300", "ligne_5": null, "libelle_d_acheminement": "VINCENNES", "coordonnees_geographiques": {"lon": 2.437714989, "lat": 48.847539205}, "dep": "94"},{"code_commune_insee": "95014", "nom_commune": "ANDILLY", "code_postal": "95580", "ligne_5": null, "libelle_d_acheminement": "ANDILLY", "coordonnees_geographiques": {"lon": 2.302974318, "lat": 49.008086762}, "dep": "95"},{"code_commune_insee": "95120", "nom_commune": "BUTRY SUR OISE", "code_postal": "95430", "ligne_5": null, "libelle_d_acheminement": "BUTRY SUR OISE", "coordonnees_geographiques": {"lon": 2.191573741, "lat": 49.083796434}, "dep": "95"},{"code_commune_insee": "95328", "nom_commune": "LABBEVILLE", "code_postal": "95690", "ligne_5": null, "libelle_d_acheminement": "LABBEVILLE", "coordonnees_geographiques": {"lon": 2.134543313, "lat": 49.134058687}, "dep": "95"},{"code_commune_insee": "95370", "nom_commune": "MARINES", "code_postal": "95640", "ligne_5": null, "libelle_d_acheminement": "MARINES", "coordonnees_geographiques": {"lon": 1.983603433, "lat": 49.147617385}, "dep": "95"},{"code_commune_insee": "75115", "nom_commune": "PARIS 15", "code_postal": "75015", "ligne_5": null, "libelle_d_acheminement": "PARIS", "coordonnees_geographiques": {"lon": 2.292837347, "lat": 48.840071988}, "dep": "75"},{"code_commune_insee": "77117", "nom_commune": "CITRY", "code_postal": "77730", "ligne_5": null, "libelle_d_acheminement": "CITRY", "coordonnees_geographiques": {"lon": 3.245229759, "lat": 48.962053081}, "dep": "77"},{"code_commune_insee": "77169", "nom_commune": "EMERAINVILLE", "code_postal": "77184", "ligne_5": null, "libelle_d_acheminement": "EMERAINVILLE", "coordonnees_geographiques": {"lon": 2.609262864, "lat": 48.819430023}, "dep": "77"},{"code_commune_insee": "77464", "nom_commune": "THORIGNY SUR MARNE", "code_postal": "77400", "ligne_5": null, "libelle_d_acheminement": "THORIGNY SUR MARNE", "coordonnees_geographiques": {"lon": 2.712913413, "lat": 48.892140285}, "dep": "77"},{"code_commune_insee": "77466", "nom_commune": "TIGEAUX", "code_postal": "77163", "ligne_5": null, "libelle_d_acheminement": "TIGEAUX", "coordonnees_geographiques": {"lon": 2.897382176, "lat": 48.824626398}, "dep": "77"},{"code_commune_insee": "77510", "nom_commune": "VILLENEUVE ST DENIS", "code_postal": "77174", "ligne_5": null, "libelle_d_acheminement": "VILLENEUVE ST DENIS", "coordonnees_geographiques": {"lon": 2.792672466, "lat": 48.812953364}, "dep": "77"},{"code_commune_insee": "78126", "nom_commune": "LA CELLE ST CLOUD", "code_postal": "78170", "ligne_5": null, "libelle_d_acheminement": "LA CELLE ST CLOUD", "coordonnees_geographiques": {"lon": 2.13446886, "lat": 48.846861121}, "dep": "78"},{"code_commune_insee": "78128", "nom_commune": "CERNAY LA VILLE", "code_postal": "78720", "ligne_5": null, "libelle_d_acheminement": "CERNAY LA VILLE", "coordonnees_geographiques": {"lon": 1.96077726, "lat": 48.669697855}, "dep": "78"},{"code_commune_insee": "78233", "nom_commune": "FEUCHEROLLES", "code_postal": "78810", "ligne_5": null, "libelle_d_acheminement": "FEUCHEROLLES", "coordonnees_geographiques": {"lon": 1.979320474, "lat": 48.880113846}, "dep": "78"},{"code_commune_insee": "78320", "nom_commune": "NOTRE DAME DE LA MER", "code_postal": "78270", "ligne_5": "PORT VILLEZ", "libelle_d_acheminement": "NOTRE DAME DE LA MER", "coordonnees_geographiques": {"lon": 1.524643709, "lat": 49.048538772}, "dep": "78"},{"code_commune_insee": "91207", "nom_commune": "EGLY", "code_postal": "91520", "ligne_5": null, "libelle_d_acheminement": "EGLY", "coordonnees_geographiques": {"lon": 2.22115407, "lat": 48.577562807}, "dep": "91"},{"code_commune_insee": "91495", "nom_commune": "PLESSIS ST BENOIST", "code_postal": "91410", "ligne_5": null, "libelle_d_acheminement": "PLESSIS ST BENOIST", "coordonnees_geographiques": {"lon": 2.002958202, "lat": 48.445269496}, "dep": "91"},{"code_commune_insee": "91538", "nom_commune": "ST AUBIN", "code_postal": "91190", "ligne_5": null, "libelle_d_acheminement": "ST AUBIN", "coordonnees_geographiques": {"lon": 2.139502723, "lat": 48.714872473}, "dep": "91"},{"code_commune_insee": "92022", "nom_commune": "CHAVILLE", "code_postal": "92370", "ligne_5": null, "libelle_d_acheminement": "CHAVILLE", "coordonnees_geographiques": {"lon": 2.192088547, "lat": 48.807476404}, "dep": "92"},{"code_commune_insee": "93045", "nom_commune": "LES LILAS", "code_postal": "93260", "ligne_5": null, "libelle_d_acheminement": "LES LILAS", "coordonnees_geographiques": {"lon": 2.420221831, "lat": 48.881603076}, "dep": "93"},{"code_commune_insee": "94071", "nom_commune": "SUCY EN BRIE", "code_postal": "94370", "ligne_5": null, "libelle_d_acheminement": "SUCY EN BRIE", "coordonnees_geographiques": {"lon": 2.533133337, "lat": 48.765666849}, "dep": "94"},{"code_commune_insee": "95504", "nom_commune": "PRESLES", "code_postal": "95590", "ligne_5": null, "libelle_d_acheminement": "PRESLES", "coordonnees_geographiques": {"lon": 2.286737473, "lat": 49.112058016}, "dep": "95"},{"code_commune_insee": "95627", "nom_commune": "VALLANGOUJARD", "code_postal": "95810", "ligne_5": null, "libelle_d_acheminement": "VALLANGOUJARD", "coordonnees_geographiques": {"lon": 2.104018705, "lat": 49.133946113}, "dep": "95"},{"code_commune_insee": "77153", "nom_commune": "DAMMARTIN EN GOELE", "code_postal": "77230", "ligne_5": null, "libelle_d_acheminement": "DAMMARTIN EN GOELE", "coordonnees_geographiques": {"lon": 2.679492254, "lat": 49.054129741}, "dep": "77"},{"code_commune_insee": "77173", "nom_commune": "ETREPILLY", "code_postal": "77139", "ligne_5": null, "libelle_d_acheminement": "ETREPILLY", "coordonnees_geographiques": {"lon": 2.930355106, "lat": 49.042806503}, "dep": "77"},{"code_commune_insee": "77200", "nom_commune": "GARENTREVILLE", "code_postal": "77890", "ligne_5": null, "libelle_d_acheminement": "GARENTREVILLE", "coordonnees_geographiques": {"lon": 2.559650109, "lat": 48.23449375}, "dep": "77"},{"code_commune_insee": "77223", "nom_commune": "GURCY LE CHATEL", "code_postal": "77520", "ligne_5": "CHALAUTRE LA REPOSTE", "libelle_d_acheminement": "GURCY LE CHATEL", "coordonnees_geographiques": {"lon": 3.081063633, "lat": 48.484161716}, "dep": "77"},{"code_commune_insee": "77240", "nom_commune": "JOUY SUR MORIN", "code_postal": "77320", "ligne_5": null, "libelle_d_acheminement": "JOUY SUR MORIN", "coordonnees_geographiques": {"lon": 3.272747305, "lat": 48.795370044}, "dep": "77"},{"code_commune_insee": "77381", "nom_commune": "QUIERS", "code_postal": "77720", "ligne_5": null, "libelle_d_acheminement": "QUIERS", "coordonnees_geographiques": {"lon": 2.961158017, "lat": 48.614127609}, "dep": "77"},{"code_commune_insee": "77383", "nom_commune": "RAMPILLON", "code_postal": "77370", "ligne_5": null, "libelle_d_acheminement": "RAMPILLON", "coordonnees_geographiques": {"lon": 3.073142083, "lat": 48.540826838}, "dep": "77"},{"code_commune_insee": "77453", "nom_commune": "SIVRY COURTRY", "code_postal": "77115", "ligne_5": null, "libelle_d_acheminement": "SIVRY COURTRY", "coordonnees_geographiques": {"lon": 2.756131534, "lat": 48.531021543}, "dep": "77"},{"code_commune_insee": "77485", "nom_commune": "LE VAUDOUE", "code_postal": "77123", "ligne_5": null, "libelle_d_acheminement": "LE VAUDOUE", "coordonnees_geographiques": {"lon": 2.521715019, "lat": 48.347141662}, "dep": "77"},{"code_commune_insee": "78171", "nom_commune": "CONDE SUR VESGRE", "code_postal": "78113", "ligne_5": null, "libelle_d_acheminement": "CONDE SUR VESGRE", "coordonnees_geographiques": {"lon": 1.673399111, "lat": 48.732533249}, "dep": "78"},{"code_commune_insee": "78368", "nom_commune": "MAREIL SUR MAULDRE", "code_postal": "78124", "ligne_5": null, "libelle_d_acheminement": "MAREIL SUR MAULDRE", "coordonnees_geographiques": {"lon": 1.874811348, "lat": 48.889124252}, "dep": "78"},{"code_commune_insee": "91198", "nom_commune": "D HUISON LONGUEVILLE", "code_postal": "91590", "ligne_5": null, "libelle_d_acheminement": "D HUISON LONGUEVILLE", "coordonnees_geographiques": {"lon": 2.326990265, "lat": 48.455962627}, "dep": "91"},{"code_commune_insee": "95288", "nom_commune": "GROSLAY", "code_postal": "95410", "ligne_5": null, "libelle_d_acheminement": "GROSLAY", "coordonnees_geographiques": {"lon": 2.350437036, "lat": 48.985398076}, "dep": "95"},{"code_commune_insee": "95298", "nom_commune": "HARAVILLIERS", "code_postal": "95640", "ligne_5": null, "libelle_d_acheminement": "HARAVILLIERS", "coordonnees_geographiques": {"lon": 2.036994982, "lat": 49.174968669}, "dep": "95"},{"code_commune_insee": "95352", "nom_commune": "LUZARCHES", "code_postal": "95270", "ligne_5": null, "libelle_d_acheminement": "LUZARCHES", "coordonnees_geographiques": {"lon": 2.440757943, "lat": 49.115413934}, "dep": "95"},{"code_commune_insee": "95500", "nom_commune": "PONTOISE", "code_postal": "95300", "ligne_5": null, "libelle_d_acheminement": "PONTOISE", "coordonnees_geographiques": {"lon": 2.094574042, "lat": 49.051577748}, "dep": "95"},{"code_commune_insee": "75110", "nom_commune": "PARIS 10", "code_postal": "75010", "ligne_5": null, "libelle_d_acheminement": "PARIS", "coordonnees_geographiques": {"lon": 2.360715102, "lat": 48.876129334}, "dep": "75"},{"code_commune_insee": "77041", "nom_commune": "BOISSY AUX CAILLES", "code_postal": "77760", "ligne_5": null, "libelle_d_acheminement": "BOISSY AUX CAILLES", "coordonnees_geographiques": {"lon": 2.492713649, "lat": 48.312345301}, "dep": "77"},{"code_commune_insee": "77062", "nom_commune": "CARNETIN", "code_postal": "77400", "ligne_5": null, "libelle_d_acheminement": "CARNETIN", "coordonnees_geographiques": {"lon": 2.699501275, "lat": 48.904294375}, "dep": "77"},{"code_commune_insee": "77121", "nom_commune": "COLLEGIEN", "code_postal": "77090", "ligne_5": null, "libelle_d_acheminement": "COLLEGIEN", "coordonnees_geographiques": {"lon": 2.677106877, "lat": 48.827880888}, "dep": "77"},{"code_commune_insee": "77148", "nom_commune": "CROUY SUR OURCQ", "code_postal": "77840", "ligne_5": null, "libelle_d_acheminement": "CROUY SUR OURCQ", "coordonnees_geographiques": {"lon": 3.079651536, "lat": 49.086796122}, "dep": "77"},{"code_commune_insee": "77317", "nom_commune": "MORMANT", "code_postal": "77720", "ligne_5": null, "libelle_d_acheminement": "MORMANT", "coordonnees_geographiques": {"lon": 2.882687132, "lat": 48.597576815}, "dep": "77"},{"code_commune_insee": "77392", "nom_commune": "ROUVRES", "code_postal": "77230", "ligne_5": null, "libelle_d_acheminement": "ROUVRES", "coordonnees_geographiques": {"lon": 2.719556893, "lat": 49.06381725}, "dep": "77"},{"code_commune_insee": "77410", "nom_commune": "ST GERMAIN LAXIS", "code_postal": "77950", "ligne_5": null, "libelle_d_acheminement": "ST GERMAIN LAXIS", "coordonnees_geographiques": {"lon": 2.706026459, "lat": 48.58624891}, "dep": "77"},{"code_commune_insee": "77420", "nom_commune": "ST MARD", "code_postal": "77230", "ligne_5": null, "libelle_d_acheminement": "ST MARD", "coordonnees_geographiques": {"lon": 2.696654759, "lat": 49.038470494}, "dep": "77"},{"code_commune_insee": "77445", "nom_commune": "SAVIGNY LE TEMPLE", "code_postal": "77176", "ligne_5": null, "libelle_d_acheminement": "SAVIGNY LE TEMPLE", "coordonnees_geographiques": {"lon": 2.586244938, "lat": 48.584512665}, "dep": "77"},{"code_commune_insee": "77494", "nom_commune": "VERNOU LA CELLE SUR SEINE", "code_postal": "77670", "ligne_5": "LA CELLE SUR SEINE", "libelle_d_acheminement": "VERNOU LA CELLE SUR SEINE", "coordonnees_geographiques": {"lon": 2.853870747, "lat": 48.406307014}, "dep": "77"},{"code_commune_insee": "78172", "nom_commune": "CONFLANS STE HONORINE", "code_postal": "78700", "ligne_5": null, "libelle_d_acheminement": "CONFLANS STE HONORINE", "coordonnees_geographiques": {"lon": 2.098929195, "lat": 48.999997129}, "dep": "78"},{"code_commune_insee": "78192", "nom_commune": "DAMMARTIN EN SERVE", "code_postal": "78111", "ligne_5": null, "libelle_d_acheminement": "DAMMARTIN EN SERVE", "coordonnees_geographiques": {"lon": 1.618287214, "lat": 48.911051106}, "dep": "78"},{"code_commune_insee": "78230", "nom_commune": "LA FALAISE", "code_postal": "78410", "ligne_5": null, "libelle_d_acheminement": "LA FALAISE", "coordonnees_geographiques": {"lon": 1.825291098, "lat": 48.937096781}, "dep": "78"},{"code_commune_insee": "78234", "nom_commune": "FLACOURT", "code_postal": "78200", "ligne_5": null, "libelle_d_acheminement": "FLACOURT", "coordonnees_geographiques": {"lon": 1.642275072, "lat": 48.93212077}, "dep": "78"},{"code_commune_insee": "78361", "nom_commune": "MANTES LA JOLIE", "code_postal": "78200", "ligne_5": null, "libelle_d_acheminement": "MANTES LA JOLIE", "coordonnees_geographiques": {"lon": 1.69406992, "lat": 48.998365533}, "dep": "78"},{"code_commune_insee": "78396", "nom_commune": "LE MESNIL LE ROI", "code_postal": "78600", "ligne_5": "CARRIERES SOUS BOIS", "libelle_d_acheminement": "LE MESNIL LE ROI", "coordonnees_geographiques": {"lon": 2.122439577, "lat": 48.926810989}, "dep": "78"},{"code_commune_insee": "78420", "nom_commune": "MONTFORT L AMAURY", "code_postal": "78490", "ligne_5": null, "libelle_d_acheminement": "MONTFORT L AMAURY", "coordonnees_geographiques": {"lon": 1.808317154, "lat": 48.771781501}, "dep": "78"},{"code_commune_insee": "78530", "nom_commune": "ROSAY", "code_postal": "78790", "ligne_5": null, "libelle_d_acheminement": "ROSAY", "coordonnees_geographiques": {"lon": 1.683933521, "lat": 48.911025784}, "dep": "78"},{"code_commune_insee": "78557", "nom_commune": "ST HILARION", "code_postal": "78125", "ligne_5": null, "libelle_d_acheminement": "ST HILARION", "coordonnees_geographiques": {"lon": 1.728663745, "lat": 48.622770883}, "dep": "78"},{"code_commune_insee": "78591", "nom_commune": "SEPTEUIL", "code_postal": "78790", "ligne_5": null, "libelle_d_acheminement": "SEPTEUIL", "coordonnees_geographiques": {"lon": 1.684199373, "lat": 48.887912901}, "dep": "78"},{"code_commune_insee": "91079", "nom_commune": "BOISSY LA RIVIERE", "code_postal": "91690", "ligne_5": null, "libelle_d_acheminement": "BOISSY LA RIVIERE", "coordonnees_geographiques": {"lon": 2.169683144, "lat": 48.382166962}, "dep": "91"},{"code_commune_insee": "91086", "nom_commune": "BONDOUFLE", "code_postal": "91070", "ligne_5": null, "libelle_d_acheminement": "BONDOUFLE", "coordonnees_geographiques": {"lon": 2.379806094, "lat": 48.613996278}, "dep": "91"},{"code_commune_insee": "91412", "nom_commune": "MONDEVILLE", "code_postal": "91590", "ligne_5": null, "libelle_d_acheminement": "MONDEVILLE", "coordonnees_geographiques": {"lon": 2.420112209, "lat": 48.491488889}, "dep": "91"},{"code_commune_insee": "91514", "nom_commune": "QUINCY SOUS SENART", "code_postal": "91480", "ligne_5": null, "libelle_d_acheminement": "QUINCY SOUS SENART", "coordonnees_geographiques": {"lon": 2.528407513, "lat": 48.670541731}, "dep": "91"},{"code_commune_insee": "91617", "nom_commune": "TIGERY", "code_postal": "91250", "ligne_5": null, "libelle_d_acheminement": "TIGERY", "coordonnees_geographiques": {"lon": 2.519273008, "lat": 48.644113864}, "dep": "91"},{"code_commune_insee": "92004", "nom_commune": "ASNIERES SUR SEINE", "code_postal": "92600", "ligne_5": null, "libelle_d_acheminement": "ASNIERES SUR SEINE", "coordonnees_geographiques": {"lon": 2.287808861, "lat": 48.91591925}, "dep": "92"},{"code_commune_insee": "92040", "nom_commune": "ISSY LES MOULINEAUX", "code_postal": "92130", "ligne_5": null, "libelle_d_acheminement": "ISSY LES MOULINEAUX", "coordonnees_geographiques": {"lon": 2.264806255, "lat": 48.823147869}, "dep": "92"},{"code_commune_insee": "95054", "nom_commune": "LE BELLAY EN VEXIN", "code_postal": "95750", "ligne_5": null, "libelle_d_acheminement": "LE BELLAY EN VEXIN", "coordonnees_geographiques": {"lon": 1.877626763, "lat": 49.149673294}, "dep": "95"},{"code_commune_insee": "95181", "nom_commune": "COURCELLES SUR VIOSNE", "code_postal": "95650", "ligne_5": null, "libelle_d_acheminement": "COURCELLES SUR VIOSNE", "coordonnees_geographiques": {"lon": 1.996296034, "lat": 49.072582083}, "dep": "95"},{"code_commune_insee": "75101", "nom_commune": "PARIS 01", "code_postal": "75001", "ligne_5": null, "libelle_d_acheminement": "PARIS", "coordonnees_geographiques": {"lon": 2.336419316, "lat": 48.862549876}, "dep": "75"},{"code_commune_insee": "77008", "nom_commune": "ARMENTIERES EN BRIE", "code_postal": "77440", "ligne_5": null, "libelle_d_acheminement": "ARMENTIERES EN BRIE", "coordonnees_geographiques": {"lon": 3.016484077, "lat": 48.980878518}, "dep": "77"},{"code_commune_insee": "77016", "nom_commune": "BAGNEAUX SUR LOING", "code_postal": "77167", "ligne_5": null, "libelle_d_acheminement": "BAGNEAUX SUR LOING", "coordonnees_geographiques": {"lon": 2.707169842, "lat": 48.223975472}, "dep": "77"},{"code_commune_insee": "77025", "nom_commune": "BAZOCHES LES BRAY", "code_postal": "77118", "ligne_5": null, "libelle_d_acheminement": "BAZOCHES LES BRAY", "coordonnees_geographiques": {"lon": 3.192886258, "lat": 48.397966957}, "dep": "77"},{"code_commune_insee": "77027", "nom_commune": "BEAUMONT DU GATINAIS", "code_postal": "77890", "ligne_5": null, "libelle_d_acheminement": "BEAUMONT DU GATINAIS", "coordonnees_geographiques": {"lon": 2.492263922, "lat": 48.140602309}, "dep": "77"},{"code_commune_insee": "77048", "nom_commune": "BOURRON MARLOTTE", "code_postal": "77780", "ligne_5": null, "libelle_d_acheminement": "BOURRON MARLOTTE", "coordonnees_geographiques": {"lon": 2.700685669, "lat": 48.334943962}, "dep": "77"},{"code_commune_insee": "77055", "nom_commune": "BROU SUR CHANTEREINE", "code_postal": "77177", "ligne_5": null, "libelle_d_acheminement": "BROU SUR CHANTEREINE", "coordonnees_geographiques": {"lon": 2.639890249, "lat": 48.890767137}, "dep": "77"},{"code_commune_insee": "77097", "nom_commune": "CHARTRONGES", "code_postal": "77320", "ligne_5": null, "libelle_d_acheminement": "CHARTRONGES", "coordonnees_geographiques": {"lon": 3.263044772, "lat": 48.750903995}, "dep": "77"},{"code_commune_insee": "77133", "nom_commune": "COURCELLES EN BASSEE", "code_postal": "77126", "ligne_5": null, "libelle_d_acheminement": "COURCELLES EN BASSEE", "coordonnees_geographiques": {"lon": 3.053085201, "lat": 48.412940438}, "dep": "77"},{"code_commune_insee": "77204", "nom_commune": "GERMIGNY SOUS COULOMBS", "code_postal": "77840", "ligne_5": null, "libelle_d_acheminement": "GERMIGNY SOUS COULOMBS", "coordonnees_geographiques": {"lon": 3.161866638, "lat": 49.064093333}, "dep": "77"},{"code_commune_insee": "77292", "nom_commune": "MESSY", "code_postal": "77410", "ligne_5": null, "libelle_d_acheminement": "MESSY", "coordonnees_geographiques": {"lon": 2.701540475, "lat": 48.966951677}, "dep": "77"},{"code_commune_insee": "77300", "nom_commune": "MONTCEAUX LES MEAUX", "code_postal": "77470", "ligne_5": null, "libelle_d_acheminement": "MONTCEAUX LES MEAUX", "coordonnees_geographiques": {"lon": 2.994551566, "lat": 48.943376871}, "dep": "77"},{"code_commune_insee": "77365", "nom_commune": "LE PLESSIS FEU AUSSOUX", "code_postal": "77540", "ligne_5": null, "libelle_d_acheminement": "LE PLESSIS FEU AUSSOUX", "coordonnees_geographiques": {"lon": 3.038536649, "lat": 48.713407621}, "dep": "77"},{"code_commune_insee": "77369", "nom_commune": "POINCY", "code_postal": "77470", "ligne_5": null, "libelle_d_acheminement": "POINCY", "coordonnees_geographiques": {"lon": 2.924509346, "lat": 48.973052624}, "dep": "77"},{"code_commune_insee": "77486", "nom_commune": "VAUDOY EN BRIE", "code_postal": "77141", "ligne_5": null, "libelle_d_acheminement": "VAUDOY EN BRIE", "coordonnees_geographiques": {"lon": 3.082307353, "lat": 48.697553863}, "dep": "77"},{"code_commune_insee": "78029", "nom_commune": "AUBERGENVILLE", "code_postal": "78410", "ligne_5": "ELISABETHVILLE", "libelle_d_acheminement": "AUBERGENVILLE", "coordonnees_geographiques": {"lon": 1.849559735, "lat": 48.962720904}, "dep": "78"},{"code_commune_insee": "78158", "nom_commune": "LE CHESNAY ROCQUENCOURT", "code_postal": "78150", "ligne_5": "LE CHESNAY", "libelle_d_acheminement": "LE CHESNAY ROCQUENCOURT", "coordonnees_geographiques": {"lon": 2.119984317, "lat": 48.829192097}, "dep": "78"},{"code_commune_insee": "78163", "nom_commune": "CIVRY LA FORET", "code_postal": "78910", "ligne_5": null, "libelle_d_acheminement": "CIVRY LA FORET", "coordonnees_geographiques": {"lon": 1.617087787, "lat": 48.864394929}, "dep": "78"},{"code_commune_insee": "78196", "nom_commune": "DAVRON", "code_postal": "78810", "ligne_5": null, "libelle_d_acheminement": "DAVRON", "coordonnees_geographiques": {"lon": 1.947514342, "lat": 48.863716585}, "dep": "78"},{"code_commune_insee": "78289", "nom_commune": "GROSROUVRE", "code_postal": "78490", "ligne_5": null, "libelle_d_acheminement": "GROSROUVRE", "coordonnees_geographiques": {"lon": 1.756936149, "lat": 48.780365132}, "dep": "78"},{"code_commune_insee": "78307", "nom_commune": "HERMERAY", "code_postal": "78125", "ligne_5": null, "libelle_d_acheminement": "HERMERAY", "coordonnees_geographiques": {"lon": 1.688377269, "lat": 48.653744482}, "dep": "78"},{"code_commune_insee": "78537", "nom_commune": "ST ARNOULT EN YVELINES", "code_postal": "78730", "ligne_5": null, "libelle_d_acheminement": "ST ARNOULT EN YVELINES", "coordonnees_geographiques": {"lon": 1.934205467, "lat": 48.572717557}, "dep": "78"},{"code_commune_insee": "78551", "nom_commune": "ST GERMAIN EN LAYE", "code_postal": "78112", "ligne_5": "FOURQUEUX", "libelle_d_acheminement": "ST GERMAIN EN LAYE", "coordonnees_geographiques": {"lon": 2.096214868, "lat": 48.937287576}, "dep": "78"},{"code_commune_insee": "78646", "nom_commune": "VERSAILLES", "code_postal": "78000", "ligne_5": null, "libelle_d_acheminement": "VERSAILLES", "coordonnees_geographiques": {"lon": 2.117410101, "lat": 48.802292474}, "dep": "78"},{"code_commune_insee": "91017", "nom_commune": "ANGERVILLIERS", "code_postal": "91470", "ligne_5": null, "libelle_d_acheminement": "ANGERVILLIERS", "coordonnees_geographiques": {"lon": 2.058514271, "lat": 48.59080074}, "dep": "91"},{"code_commune_insee": "91136", "nom_commune": "CHAMPLAN", "code_postal": "91160", "ligne_5": null, "libelle_d_acheminement": "CHAMPLAN", "coordonnees_geographiques": {"lon": 2.278151045, "lat": 48.708041464}, "dep": "91"},{"code_commune_insee": "91469", "nom_commune": "ORMOY LA RIVIERE", "code_postal": "91150", "ligne_5": null, "libelle_d_acheminement": "ORMOY LA RIVIERE", "coordonnees_geographiques": {"lon": 2.163486233, "lat": 48.400724764}, "dep": "91"},{"code_commune_insee": "91599", "nom_commune": "SOISY SUR ECOLE", "code_postal": "91840", "ligne_5": null, "libelle_d_acheminement": "SOISY SUR ECOLE", "coordonnees_geographiques": {"lon": 2.481793376, "lat": 48.478908418}, "dep": "91"},{"code_commune_insee": "92047", "nom_commune": "MARNES LA COQUETTE", "code_postal": "92430", "ligne_5": null, "libelle_d_acheminement": "MARNES LA COQUETTE", "coordonnees_geographiques": {"lon": 2.166605457, "lat": 48.83076684}, "dep": "92"},{"code_commune_insee": "94018", "nom_commune": "CHARENTON LE PONT", "code_postal": "94220", "ligne_5": null, "libelle_d_acheminement": "CHARENTON LE PONT", "coordonnees_geographiques": {"lon": 2.406597157, "lat": 48.822572708}, "dep": "94"},{"code_commune_insee": "94073", "nom_commune": "THIAIS", "code_postal": "94320", "ligne_5": null, "libelle_d_acheminement": "THIAIS", "coordonnees_geographiques": {"lon": 2.385495992, "lat": 48.760790808}, "dep": "94"},{"code_commune_insee": "95141", "nom_commune": "CHARMONT", "code_postal": "95420", "ligne_5": null, "libelle_d_acheminement": "CHARMONT", "coordonnees_geographiques": {"lon": 1.790310096, "lat": 49.137757434}, "dep": "95"},{"code_commune_insee": "95203", "nom_commune": "EAUBONNE", "code_postal": "95600", "ligne_5": null, "libelle_d_acheminement": "EAUBONNE", "coordonnees_geographiques": {"lon": 2.277481312, "lat": 48.991067498}, "dep": "95"},{"code_commune_insee": "95509", "nom_commune": "PUISEUX EN FRANCE", "code_postal": "95380", "ligne_5": null, "libelle_d_acheminement": "PUISEUX EN FRANCE", "coordonnees_geographiques": {"lon": 2.488509672, "lat": 49.066868173}, "dep": "95"},{"code_commune_insee": "95510", "nom_commune": "PUISEUX PONTOISE", "code_postal": "95650", "ligne_5": null, "libelle_d_acheminement": "PUISEUX PONTOISE", "coordonnees_geographiques": {"lon": 2.016295404, "lat": 49.063645075}, "dep": "95"},{"code_commune_insee": "95628", "nom_commune": "VALMONDOIS", "code_postal": "95760", "ligne_5": null, "libelle_d_acheminement": "VALMONDOIS", "coordonnees_geographiques": {"lon": 2.18024882, "lat": 49.098061377}, "dep": "95"},{"code_commune_insee": "95652", "nom_commune": "VIARMES", "code_postal": "95270", "ligne_5": null, "libelle_d_acheminement": "VIARMES", "coordonnees_geographiques": {"lon": 2.378532448, "lat": 49.123452595}, "dep": "95"},{"code_commune_insee": "77049", "nom_commune": "BOUTIGNY", "code_postal": "77470", "ligne_5": null, "libelle_d_acheminement": "BOUTIGNY", "coordonnees_geographiques": {"lon": 2.929072628, "lat": 48.912806487}, "dep": "77"},{"code_commune_insee": "77051", "nom_commune": "BRAY SUR SEINE", "code_postal": "77480", "ligne_5": null, "libelle_d_acheminement": "BRAY SUR SEINE", "coordonnees_geographiques": {"lon": 3.242863551, "lat": 48.414017188}, "dep": "77"},{"code_commune_insee": "77071", "nom_commune": "CHAINTREAUX", "code_postal": "77460", "ligne_5": null, "libelle_d_acheminement": "CHAINTREAUX", "coordonnees_geographiques": {"lon": 2.814088179, "lat": 48.190775847}, "dep": "77"},{"code_commune_insee": "77082", "nom_commune": "CHAMPEAUX", "code_postal": "77720", "ligne_5": null, "libelle_d_acheminement": "CHAMPEAUX", "coordonnees_geographiques": {"lon": 2.810684943, "lat": 48.592178509}, "dep": "77"},{"code_commune_insee": "77140", "nom_commune": "COUTENCON", "code_postal": "77154", "ligne_5": null, "libelle_d_acheminement": "COUTENCON", "coordonnees_geographiques": {"lon": 2.996314579, "lat": 48.473277512}, "dep": "77"},{"code_commune_insee": "77164", "nom_commune": "ECHOUBOULAINS", "code_postal": "77830", "ligne_5": null, "libelle_d_acheminement": "ECHOUBOULAINS", "coordonnees_geographiques": {"lon": 2.930014288, "lat": 48.463138191}, "dep": "77"},{"code_commune_insee": "77262", "nom_commune": "LOUAN VILLEGRUIS FONTAINE", "code_postal": "77560", "ligne_5": "FONTAINE SOUS MONTAIGUILLON", "libelle_d_acheminement": "LOUAN VILLEGRUIS FONTAINE", "coordonnees_geographiques": {"lon": 3.48933483, "lat": 48.614524882}, "dep": "77"},{"code_commune_insee": "77336", "nom_commune": "NEUFMOUTIERS EN BRIE", "code_postal": "77610", "ligne_5": null, "libelle_d_acheminement": "NEUFMOUTIERS EN BRIE", "coordonnees_geographiques": {"lon": 2.825916483, "lat": 48.774023154}, "dep": "77"},{"code_commune_insee": "77350", "nom_commune": "OZOIR LA FERRIERE", "code_postal": "77330", "ligne_5": null, "libelle_d_acheminement": "OZOIR LA FERRIERE", "coordonnees_geographiques": {"lon": 2.680230189, "lat": 48.763940835}, "dep": "77"},{"code_commune_insee": "77407", "nom_commune": "ST FARGEAU PONTHIERRY", "code_postal": "77310", "ligne_5": null, "libelle_d_acheminement": "ST FARGEAU PONTHIERRY", "coordonnees_geographiques": {"lon": 2.524704829, "lat": 48.538911417}, "dep": "77"},{"code_commune_insee": "77436", "nom_commune": "ST SIMEON", "code_postal": "77169", "ligne_5": null, "libelle_d_acheminement": "ST SIMEON", "coordonnees_geographiques": {"lon": 3.194538794, "lat": 48.804623864}, "dep": "77"},{"code_commune_insee": "77440", "nom_commune": "SAMMERON", "code_postal": "77260", "ligne_5": null, "libelle_d_acheminement": "SAMMERON", "coordonnees_geographiques": {"lon": 3.076683143, "lat": 48.942112359}, "dep": "77"},{"code_commune_insee": "77442", "nom_commune": "SAMOREAU", "code_postal": "77210", "ligne_5": null, "libelle_d_acheminement": "SAMOREAU", "coordonnees_geographiques": {"lon": 2.769157835, "lat": 48.419818579}, "dep": "77"},{"code_commune_insee": "77444", "nom_commune": "SANCY LES PROVINS", "code_postal": "77320", "ligne_5": null, "libelle_d_acheminement": "SANCY LES PROVINS", "coordonnees_geographiques": {"lon": 3.393426506, "lat": 48.709852705}, "dep": "77"},{"code_commune_insee": "78003", "nom_commune": "ABLIS", "code_postal": "78660", "ligne_5": null, "libelle_d_acheminement": "ABLIS", "coordonnees_geographiques": {"lon": 1.850859166, "lat": 48.528463606}, "dep": "78"},{"code_commune_insee": "78160", "nom_commune": "CHEVREUSE", "code_postal": "78460", "ligne_5": null, "libelle_d_acheminement": "CHEVREUSE", "coordonnees_geographiques": {"lon": 2.037387133, "lat": 48.707100858}, "dep": "78"},{"code_commune_insee": "78397", "nom_commune": "LE MESNIL ST DENIS", "code_postal": "78320", "ligne_5": null, "libelle_d_acheminement": "LE MESNIL ST DENIS", "coordonnees_geographiques": {"lon": 1.965936845, "lat": 48.740751418}, "dep": "78"},{"code_commune_insee": "91195", "nom_commune": "DANNEMOIS", "code_postal": "91490", "ligne_5": null, "libelle_d_acheminement": "DANNEMOIS", "coordonnees_geographiques": {"lon": 2.465468838, "lat": 48.45974658}, "dep": "91"},{"code_commune_insee": "91560", "nom_commune": "ST JEAN DE BEAUREGARD", "code_postal": "91940", "ligne_5": null, "libelle_d_acheminement": "ST JEAN DE BEAUREGARD", "coordonnees_geographiques": {"lon": 2.172226269, "lat": 48.665836914}, "dep": "91"},{"code_commune_insee": "91657", "nom_commune": "VIGNEUX SUR SEINE", "code_postal": "91270", "ligne_5": null, "libelle_d_acheminement": "VIGNEUX SUR SEINE", "coordonnees_geographiques": {"lon": 2.427472385, "lat": 48.704173357}, "dep": "91"},{"code_commune_insee": "92012", "nom_commune": "BOULOGNE BILLANCOURT", "code_postal": "92100", "ligne_5": null, "libelle_d_acheminement": "BOULOGNE BILLANCOURT", "coordonnees_geographiques": {"lon": 2.239066161, "lat": 48.836400822}, "dep": "92"},{"code_commune_insee": "92048", "nom_commune": "MEUDON", "code_postal": "92190", "ligne_5": null, "libelle_d_acheminement": "MEUDON", "coordonnees_geographiques": {"lon": 2.227332801, "lat": 48.804093282}, "dep": "92"},{"code_commune_insee": "92060", "nom_commune": "LE PLESSIS ROBINSON", "code_postal": "92350", "ligne_5": "ROBINSON", "libelle_d_acheminement": "LE PLESSIS ROBINSON", "coordonnees_geographiques": {"lon": 2.25980883, "lat": 48.780251597}, "dep": "92"},{"code_commune_insee": "92076", "nom_commune": "VAUCRESSON", "code_postal": "92420", "ligne_5": null, "libelle_d_acheminement": "VAUCRESSON", "coordonnees_geographiques": {"lon": 2.16063419, "lat": 48.842089267}, "dep": "92"},{"code_commune_insee": "93049", "nom_commune": "NEUILLY PLAISANCE", "code_postal": "93360", "ligne_5": null, "libelle_d_acheminement": "NEUILLY PLAISANCE", "coordonnees_geographiques": {"lon": 2.509996689, "lat": 48.864367187}, "dep": "93"},{"code_commune_insee": "94076", "nom_commune": "VILLEJUIF", "code_postal": "94800", "ligne_5": null, "libelle_d_acheminement": "VILLEJUIF", "coordonnees_geographiques": {"lon": 2.35987795, "lat": 48.792392355}, "dep": "94"},{"code_commune_insee": "95051", "nom_commune": "BEAUCHAMP", "code_postal": "95250", "ligne_5": null, "libelle_d_acheminement": "BEAUCHAMP", "coordonnees_geographiques": {"lon": 2.191756994, "lat": 49.015006767}, "dep": "95"},{"code_commune_insee": "95539", "nom_commune": "ST BRICE SOUS FORET", "code_postal": "95350", "ligne_5": null, "libelle_d_acheminement": "ST BRICE SOUS FORET", "coordonnees_geographiques": {"lon": 2.349660792, "lat": 49.001942556}, "dep": "95"},{"code_commune_insee": "77010", "nom_commune": "AUBEPIERRE OZOUER LE REPOS", "code_postal": "77720", "ligne_5": "OZOUER LE REPOS", "libelle_d_acheminement": "AUBEPIERRE OZOUER LE REPOS", "coordonnees_geographiques": {"lon": 2.903442764, "lat": 48.619969635}, "dep": "77"},{"code_commune_insee": "77014", "nom_commune": "AVON", "code_postal": "77210", "ligne_5": null, "libelle_d_acheminement": "AVON", "coordonnees_geographiques": {"lon": 2.732936976, "lat": 48.413236599}, "dep": "77"},{"code_commune_insee": "77026", "nom_commune": "BEAUCHERY ST MARTIN", "code_postal": "77560", "ligne_5": "ST MARTIN CHENNETRON", "libelle_d_acheminement": "BEAUCHERY ST MARTIN", "coordonnees_geographiques": {"lon": 3.420786944, "lat": 48.602164551}, "dep": "77"},{"code_commune_insee": "77045", "nom_commune": "BOUGLIGNY", "code_postal": "77570", "ligne_5": null, "libelle_d_acheminement": "BOUGLIGNY", "coordonnees_geographiques": {"lon": 2.666643649, "lat": 48.199154099}, "dep": "77"},{"code_commune_insee": "77058", "nom_commune": "BUSSY ST GEORGES", "code_postal": "77600", "ligne_5": null, "libelle_d_acheminement": "BUSSY ST GEORGES", "coordonnees_geographiques": {"lon": 2.722990758, "lat": 48.830863087}, "dep": "77"},{"code_commune_insee": "77089", "nom_commune": "LA CHAPELLE RABLAIS", "code_postal": "77370", "ligne_5": null, "libelle_d_acheminement": "LA CHAPELLE RABLAIS", "coordonnees_geographiques": {"lon": 2.960293017, "lat": 48.506183066}, "dep": "77"},{"code_commune_insee": "77095", "nom_commune": "CHARNY", "code_postal": "77410", "ligne_5": null, "libelle_d_acheminement": "CHARNY", "coordonnees_geographiques": {"lon": 2.756065855, "lat": 48.969607617}, "dep": "77"},{"code_commune_insee": "77182", "nom_commune": "LA FERTE GAUCHER", "code_postal": "77320", "ligne_5": null, "libelle_d_acheminement": "LA FERTE GAUCHER", "coordonnees_geographiques": {"lon": 3.304171766, "lat": 48.787870552}, "dep": "77"},{"code_commune_insee": "77192", "nom_commune": "FONTENAY TRESIGNY", "code_postal": "77610", "ligne_5": null, "libelle_d_acheminement": "FONTENAY TRESIGNY", "coordonnees_geographiques": {"lon": 2.861671908, "lat": 48.698183822}, "dep": "77"},{"code_commune_insee": "77206", "nom_commune": "GIREMOUTIERS", "code_postal": "77120", "ligne_5": null, "libelle_d_acheminement": "GIREMOUTIERS", "coordonnees_geographiques": {"lon": 3.032477099, "lat": 48.852489445}, "dep": "77"},{"code_commune_insee": "77228", "nom_commune": "HONDEVILLIERS", "code_postal": "77510", "ligne_5": null, "libelle_d_acheminement": "HONDEVILLIERS", "coordonnees_geographiques": {"lon": 3.312416593, "lat": 48.903642049}, "dep": "77"},{"code_commune_insee": "77264", "nom_commune": "LUMIGNY NESLES ORMEAUX", "code_postal": "77540", "ligne_5": null, "libelle_d_acheminement": "LUMIGNY NESLES ORMEAUX", "coordonnees_geographiques": {"lon": 2.953592052, "lat": 48.719641692}, "dep": "77"},{"code_commune_insee": "77434", "nom_commune": "ST SAUVEUR LES BRAY", "code_postal": "77480", "ligne_5": null, "libelle_d_acheminement": "ST SAUVEUR LES BRAY", "coordonnees_geographiques": {"lon": 3.205175982, "lat": 48.437670564}, "dep": "77"},{"code_commune_insee": "77451", "nom_commune": "SIGNY SIGNETS", "code_postal": "77640", "ligne_5": null, "libelle_d_acheminement": "SIGNY SIGNETS", "coordonnees_geographiques": {"lon": 3.063858526, "lat": 48.9173914}, "dep": "77"},{"code_commune_insee": "77480", "nom_commune": "VALENCE EN BRIE", "code_postal": "77830", "ligne_5": null, "libelle_d_acheminement": "VALENCE EN BRIE", "coordonnees_geographiques": {"lon": 2.89264056, "lat": 48.446608135}, "dep": "77"},{"code_commune_insee": "78005", "nom_commune": "ACHERES", "code_postal": "78260", "ligne_5": null, "libelle_d_acheminement": "ACHERES", "coordonnees_geographiques": {"lon": 2.065775509, "lat": 48.967914935}, "dep": "78"},{"code_commune_insee": "78015", "nom_commune": "ANDRESY", "code_postal": "78570", "ligne_5": null, "libelle_d_acheminement": "ANDRESY", "coordonnees_geographiques": {"lon": 2.04971852, "lat": 48.981584282}, "dep": "78"},{"code_commune_insee": "78029", "nom_commune": "AUBERGENVILLE", "code_postal": "78410", "ligne_5": null, "libelle_d_acheminement": "AUBERGENVILLE", "coordonnees_geographiques": {"lon": 1.849559735, "lat": 48.962720904}, "dep": "78"},{"code_commune_insee": "78036", "nom_commune": "AUTOUILLET", "code_postal": "78770", "ligne_5": null, "libelle_d_acheminement": "AUTOUILLET", "coordonnees_geographiques": {"lon": 1.797003757, "lat": 48.844088345}, "dep": "78"},{"code_commune_insee": "78297", "nom_commune": "GUYANCOURT", "code_postal": "78280", "ligne_5": null, "libelle_d_acheminement": "GUYANCOURT", "coordonnees_geographiques": {"lon": 2.075795692, "lat": 48.773058155}, "dep": "78"},{"code_commune_insee": "78569", "nom_commune": "STE MESME", "code_postal": "78730", "ligne_5": null, "libelle_d_acheminement": "STE MESME", "coordonnees_geographiques": {"lon": 1.941191495, "lat": 48.535810688}, "dep": "78"},{"code_commune_insee": "78576", "nom_commune": "ST REMY L HONORE", "code_postal": "78690", "ligne_5": null, "libelle_d_acheminement": "ST REMY L HONORE", "coordonnees_geographiques": {"lon": 1.875834577, "lat": 48.748734828}, "dep": "78"},{"code_commune_insee": "91106", "nom_commune": "BREUX JOUY", "code_postal": "91650", "ligne_5": null, "libelle_d_acheminement": "BREUX JOUY", "coordonnees_geographiques": {"lon": 2.160714487, "lat": 48.554663889}, "dep": "91"},{"code_commune_insee": "91121", "nom_commune": "BUNO BONNEVAUX", "code_postal": "91720", "ligne_5": null, "libelle_d_acheminement": "BUNO BONNEVAUX", "coordonnees_geographiques": {"lon": 2.406864727, "lat": 48.357152004}, "dep": "91"},{"code_commune_insee": "91458", "nom_commune": "NOZAY", "code_postal": "91620", "ligne_5": null, "libelle_d_acheminement": "NOZAY", "coordonnees_geographiques": {"lon": 2.238250389, "lat": 48.660749931}, "dep": "91"},{"code_commune_insee": "91671", "nom_commune": "VILLENEUVE SUR AUVERS", "code_postal": "91580", "ligne_5": null, "libelle_d_acheminement": "VILLENEUVE SUR AUVERS", "coordonnees_geographiques": {"lon": 2.253780258, "lat": 48.466815446}, "dep": "91"},{"code_commune_insee": "91685", "nom_commune": "VILLIERS SUR ORGE", "code_postal": "91700", "ligne_5": null, "libelle_d_acheminement": "VILLIERS SUR ORGE", "coordonnees_geographiques": {"lon": 2.299304308, "lat": 48.659131592}, "dep": "91"},{"code_commune_insee": "91692", "nom_commune": "LES ULIS", "code_postal": "91940", "ligne_5": null, "libelle_d_acheminement": "LES ULIS", "coordonnees_geographiques": {"lon": 2.195008928, "lat": 48.681300434}, "dep": "91"},{"code_commune_insee": "93048", "nom_commune": "MONTREUIL", "code_postal": "93100", "ligne_5": null, "libelle_d_acheminement": "MONTREUIL", "coordonnees_geographiques": {"lon": 2.448636297, "lat": 48.86351321}, "dep": "93"},{"code_commune_insee": "94060", "nom_commune": "LA QUEUE EN BRIE", "code_postal": "94510", "ligne_5": null, "libelle_d_acheminement": "LA QUEUE EN BRIE", "coordonnees_geographiques": {"lon": 2.584471181, "lat": 48.777344015}, "dep": "94"},{"code_commune_insee": "95323", "nom_commune": "JOUY LE MOUTIER", "code_postal": "95280", "ligne_5": "VINCOURT", "libelle_d_acheminement": "JOUY LE MOUTIER", "coordonnees_geographiques": {"lon": 2.033483228, "lat": 49.010991384}, "dep": "95"},{"code_commune_insee": "95476", "nom_commune": "OSNY", "code_postal": "95520", "ligne_5": null, "libelle_d_acheminement": "OSNY", "coordonnees_geographiques": {"lon": 2.063102587, "lat": 49.067941998}, "dep": "95"},{"code_commune_insee": "95480", "nom_commune": "PARMAIN", "code_postal": "95620", "ligne_5": null, "libelle_d_acheminement": "PARMAIN", "coordonnees_geographiques": {"lon": 2.201090519, "lat": 49.122876265}, "dep": "95"},{"code_commune_insee": "95489", "nom_commune": "PISCOP", "code_postal": "95350", "ligne_5": null, "libelle_d_acheminement": "PISCOP", "coordonnees_geographiques": {"lon": 2.341408982, "lat": 49.016539208}, "dep": "95"},{"code_commune_insee": "77091", "nom_commune": "LES CHAPELLES BOURBON", "code_postal": "77610", "ligne_5": null, "libelle_d_acheminement": "LES CHAPELLES BOURBON", "coordonnees_geographiques": {"lon": 2.836190687, "lat": 48.743714997}, "dep": "77"},{"code_commune_insee": "77109", "nom_commune": "CHENOISE CUCHARMOY", "code_postal": "77160", "ligne_5": "CHENOISE", "libelle_d_acheminement": "CHENOISE CUCHARMOY", "coordonnees_geographiques": {"lon": 3.189120226, "lat": 48.613352117}, "dep": "77"},{"code_commune_insee": "77115", "nom_commune": "CHEVRY EN SEREINE", "code_postal": "77710", "ligne_5": null, "libelle_d_acheminement": "CHEVRY EN SEREINE", "coordonnees_geographiques": {"lon": 2.960366396, "lat": 48.248327245}, "dep": "77"},{"code_commune_insee": "77128", "nom_commune": "COUILLY PONT AUX DAMES", "code_postal": "77860", "ligne_5": null, "libelle_d_acheminement": "COUILLY PONT AUX DAMES", "coordonnees_geographiques": {"lon": 2.865432987, "lat": 48.881920765}, "dep": "77"},{"code_commune_insee": "77145", "nom_commune": "CRISENOY", "code_postal": "77390", "ligne_5": null, "libelle_d_acheminement": "CRISENOY", "coordonnees_geographiques": {"lon": 2.74433498, "lat": 48.60340544}, "dep": "77"},{"code_commune_insee": "77146", "nom_commune": "CROISSY BEAUBOURG", "code_postal": "77183", "ligne_5": "BEAUBOURG", "libelle_d_acheminement": "CROISSY BEAUBOURG", "coordonnees_geographiques": {"lon": 2.655772784, "lat": 48.816552165}, "dep": "77"},{"code_commune_insee": "77165", "nom_commune": "LES ECRENNES", "code_postal": "77820", "ligne_5": null, "libelle_d_acheminement": "LES ECRENNES", "coordonnees_geographiques": {"lon": 2.875380612, "lat": 48.495631485}, "dep": "77"},{"code_commune_insee": "77177", "nom_commune": "FAVIERES", "code_postal": "77220", "ligne_5": null, "libelle_d_acheminement": "FAVIERES", "coordonnees_geographiques": {"lon": 2.768343712, "lat": 48.779785845}, "dep": "77"},{"code_commune_insee": "77178", "nom_commune": "FAY LES NEMOURS", "code_postal": "77167", "ligne_5": null, "libelle_d_acheminement": "FAY LES NEMOURS", "coordonnees_geographiques": {"lon": 2.664028675, "lat": 48.227619898}, "dep": "77"},